name,longitude,latitude,location,ref,man_made,operator,source,url,height,ele,communications_transponder:frequency,communications_transponder:tone,communications_transponder:modulation,communications_transponder:access,communications_transponder:service,communications_transponder:polarisation,communications_transponder:power,comment
N4MDC,-68.29,44.29,"Northeast",N4MDC,communications_transponder,,http://www.poi-factory.com/node/2227,,,,Harbor,,NFM,Public,AMATEUR,,,"offset=224.4MHz"
N1CHF,-68.38,47.28,"Frenchville",N1CHF,communications_transponder,,http://www.poi-factory.com/node/2227,,,,224.18,,NFM,Public,AMATEUR,,,"offset=-"
WA1KAH,-68.66,44.69,"Dedham",WA1KAH,communications_transponder,,http://www.poi-factory.com/node/2227,,,,223.76,,NFM,Public,AMATEUR,,,"offset=-"
K1EHO,-69.16,44.27,"Hope",K1EHO,communications_transponder,,http://www.poi-factory.com/node/2227,,,,224,,NFM,Public,AMATEUR,,,"offset=-"
WA1ZDA,-69.24,44.12,"Warren",WA1ZDA,communications_transponder,,http://www.poi-factory.com/node/2227,,,,224.1,,NFM,Public,AMATEUR,,,"offset=-"
W1IMD,-69.29,45.84,"Woodstock",W1IMD,communications_transponder,,http://www.poi-factory.com/node/2227,,,,223.94,103.5,NFM,Public,AMATEUR,,,"offset=-"
KC1CG,-69.37,44.27,"Washington",KC1CG,communications_transponder,,http://www.poi-factory.com/node/2227,,,,224.28,91.5,NFM,Public,AMATEUR,,,"offset=-"
N1PS,-69.38,44.1,"Waldoboro",N1PS,communications_transponder,,http://www.poi-factory.com/node/2227,,,,224.78,107.2,NFM,Public,AMATEUR,,,"offset=-"
N1EWS,-69.98,44.31,"Winthrop",N1EWS,communications_transponder,,http://www.poi-factory.com/node/2227,,,,224.72,,NFM,Public,AMATEUR,,,"offset=-"
W1IF,-70.37,44.29,"Buckfield",W1IF,communications_transponder,,http://www.poi-factory.com/node/2227,,,,224.62,103.5,NFM,Public,AMATEUR,,,"offset=-"
W1GLO,-70.66,42.62,"Gloucester",W1GLO,communications_transponder,,http://www.poi-factory.com/node/2227,,,,224.9,,NFM,Public,AMATEUR,,,"offset=-"
NS1RA,-70.93,42.57,"Danvers",NS1RA,communications_transponder,,http://www.poi-factory.com/node/2227,,,,224.38,,NFM,Public,AMATEUR,,,"offset=-"
K1KN,-70.95,42.98,"Exeter",K1KN,communications_transponder,,http://www.poi-factory.com/node/2227,,,,224.22,67,NFM,Public,AMATEUR,,,"offset=+"
N1KUG,-71,42.25,"Quincy",N1KUG,communications_transponder,,http://www.poi-factory.com/node/2227,,,,224.4,103.5,NFM,Public,AMATEUR,,,"offset=-"
WA1WYA,-71.07,42.51,"Wakefield",WA1WYA,communications_transponder,,http://www.poi-factory.com/node/2227,,,,224.72,,NFM,Public,AMATEUR,,,"offset=-"
K1KKM,-71.08,42.78,"Haverhill",K1KKM,communications_transponder,,http://www.poi-factory.com/node/2227,,,,223.92,141.3,NFM,Public,AMATEUR,,,"offset=-"
N1IRS,-71.08,42.78,"Haverhill",N1IRS,communications_transponder,,http://www.poi-factory.com/node/2227,,,,224.12,103.5,NFM,Public,AMATEUR,,,"offset=-"
KA1JMF,-71.1,42.48,"Stoneham",KA1JMF,communications_transponder,,http://www.poi-factory.com/node/2227,,,,224.42,,NFM,Public,AMATEUR,,,"offset=-"
K1CF,-71.11,42.42,"Medford",K1CF,communications_transponder,,http://www.poi-factory.com/node/2227,,,,224.36,,NFM,Public,AMATEUR,,,"offset=-"
WA1WLU,-71.14,42.7,"North",WA1WLU,communications_transponder,,http://www.poi-factory.com/node/2227,,,,Andover,,NFM,Public,AMATEUR,,,"offset=224.52MHz"
WA1WLU,-71.14,42.66,"Andover",WA1WLU,communications_transponder,,http://www.poi-factory.com/node/2227,,,,224.68,,NFM,Public,AMATEUR,,,"offset=-"
KA1RMF,-71.15,42.48,"Woburn",KA1RMF,communications_transponder,,http://www.poi-factory.com/node/2227,,,,224.98,,NFM,Public,AMATEUR,,,"offset=-"
N1EXC,-71.16,42.71,"Lawrence",N1EXC,communications_transponder,,http://www.poi-factory.com/node/2227,,,,224.3,,NFM,Public,AMATEUR,,,"offset=-"
K1KZP,-71.17,42.55,"Wilmington",K1KZP,communications_transponder,,http://www.poi-factory.com/node/2227,,,,224.16,67,NFM,Public,AMATEUR,,,"offset=-"
KB1FX,-71.18,42.4,"Belmont",KB1FX,communications_transponder,,http://www.poi-factory.com/node/2227,,,,223.78,100,NFM,Public,AMATEUR,,,"offset=-"
KX1M,-71.19,42.73,"Methuen",KX1M,communications_transponder,,http://www.poi-factory.com/node/2227,,,,224.96,103.5,NFM,Public,AMATEUR,,,"offset=-"
N1HDY,-71.23,42.61,"Tewksbury",N1HDY,communications_transponder,,http://www.poi-factory.com/node/2227,,,,224.26,67,NFM,Public,AMATEUR,,,"offset=-"
WA1GEP,-71.24,42.38,"Waltham",WA1GEP,communications_transponder,,http://www.poi-factory.com/node/2227,,,,224.94,,NFM,Public,AMATEUR,,,"offset=-"
W1ZSA,-71.25,42.14,"Walpole",W1ZSA,communications_transponder,,http://www.poi-factory.com/node/2227,,,,224.32,118.8,NFM,Public,AMATEUR,,,"offset=-"
K1OX,-71.26,42.96,"Chester",K1OX,communications_transponder,,http://www.poi-factory.com/node/2227,,,,224.2,,NFM,Public,AMATEUR,,,"offset=+"
N1IMO,-71.26,42.96,"Chester",N1IMO,communications_transponder,,http://www.poi-factory.com/node/2227,,,,224.5,88.5,NFM,Public,AMATEUR,,,"offset=+"
N1TVZ,-71.29,41.94,"Attleboro",N1TVZ,communications_transponder,,http://www.poi-factory.com/node/2227,,,,224.62,88.5,NFM,Public,AMATEUR,,,"offset=-"
W1IMD,-71.3,44.27,"Mt",W1IMD,communications_transponder,,http://www.poi-factory.com/node/2227,,,,Washington,103.5,NFM,Public,AMATEUR,,,"offset=224.86MHz"
N1NOM,-71.3,42.37,"Weston",N1NOM,communications_transponder,,http://www.poi-factory.com/node/2227,,,,224.7,103.5,NFM,Public,AMATEUR,,,"offset=-"
WA1TAQ,-71.31,41.49,"Newport",WA1TAQ,communications_transponder,,http://www.poi-factory.com/node/2227,,,,223.82,88.5,NFM,Public,AMATEUR,,,"offset=-"
N1AKE,-71.32,43.31,"Pittsfield",N1AKE,communications_transponder,,http://www.poi-factory.com/node/2227,,,,224.54,103.5,NFM,Public,AMATEUR,,,"offset=+"
K1CA,-71.33,42.88,"Derry",K1CA,communications_transponder,,http://www.poi-factory.com/node/2227,,,,224.46,85.4,NFM,Public,AMATEUR,,,"offset=+"
N1AU,-71.35,42.46,"Concord",N1AU,communications_transponder,,http://www.poi-factory.com/node/2227,,,,224.04,,NFM,Public,AMATEUR,,,"offset=-"
W1KG,-71.4,42.14,"Medway",W1KG,communications_transponder,,http://www.poi-factory.com/node/2227,,,,224.66,,NFM,Public,AMATEUR,,,"offset=-"
WA1TAQ,-71.41,41.82,"Providence",WA1TAQ,communications_transponder,,http://www.poi-factory.com/node/2227,,,,224.92,88.5,NFM,Public,AMATEUR,,,"offset=-"
KD1T,-71.42,42.28,"Framingham",KD1T,communications_transponder,,http://www.poi-factory.com/node/2227,,,,224.24,,NFM,Public,AMATEUR,,,"offset=-"
KD1BC,-71.42,42.2,"Holliston",KD1BC,communications_transponder,,http://www.poi-factory.com/node/2227,,,,224.06,103.5,NFM,Public,AMATEUR,,,"offset=-"
KA1LMX,-71.42,41.7,"Warwick",KA1LMX,communications_transponder,,http://www.poi-factory.com/node/2227,,,,223.92,,NFM,Public,AMATEUR,,,"offset=-"
N1FIK,-71.43,43.52,"Mt",N1FIK,communications_transponder,,http://www.poi-factory.com/node/2227,,,,Uncanoonuc,103.5,NFM,Public,AMATEUR,,,"offset=223.9MHz"
K1HR,-71.43,43.52,"Cannon",K1HR,communications_transponder,,http://www.poi-factory.com/node/2227,,,,Mtn,114.8,NFM,Public,AMATEUR,,,"offset=224.06MHz"
K1KYI,-71.44,41.91,"Lincoln",K1KYI,communications_transponder,,http://www.poi-factory.com/node/2227,,,,223.76,,NFM,Public,AMATEUR,,,"offset=-"
KA1RCI,-71.44,41.91,"Lincoln",KA1RCI,communications_transponder,,http://www.poi-factory.com/node/2227,,,,223.96,127.3,NFM,Public,AMATEUR,,,"offset=-"
KA1MYV,-71.44,41.91,"Lincoln",KA1MYV,communications_transponder,,http://www.poi-factory.com/node/2227,,,,224.2,100,NFM,Public,AMATEUR,,,"offset=-"
W1OP,-71.5,41.83,"Johnston",W1OP,communications_transponder,,http://www.poi-factory.com/node/2227,,,,223.98,,NFM,Public,AMATEUR,,,"offset=-"
N1BHI,-71.52,42.23,"Hopkinton",N1BHI,communications_transponder,,http://www.poi-factory.com/node/2227,,,,223.94,103.5,NFM,Public,AMATEUR,,,"offset=-"
KA1SOO,-71.52,41.71,"West",KA1SOO,communications_transponder,,http://www.poi-factory.com/node/2227,,,,Warwick,,NFM,Public,AMATEUR,,,"offset=224.76MHz"
KA1NXS,-71.54,41.58,"Exeter",KA1NXS,communications_transponder,,http://www.poi-factory.com/node/2227,,,,224.56,100,NFM,Public,AMATEUR,,,"offset=-"
W1MRA,-71.55,42.35,"Marlborough",W1MRA,communications_transponder,,http://www.poi-factory.com/node/2227,,,,224.88,103.5,NFM,Public,AMATEUR,,,"offset=-"
N1MNX,-71.59,42.67,"Pepperell",N1MNX,communications_transponder,,http://www.poi-factory.com/node/2227,,,,223.96,100,NFM,Public,AMATEUR,,,"offset=-"
WA1VVH,-71.59,42.67,"Pepperell",WA1VVH,communications_transponder,,http://www.poi-factory.com/node/2227,,,,224.64,,NFM,Public,AMATEUR,,,"offset=-"
N1JBC,-71.59,41.83,"Scituate",N1JBC,communications_transponder,,http://www.poi-factory.com/node/2227,,,,224.1,88.5,NFM,Public,AMATEUR,,,"offset=-"
K1ZQ,-71.63,42.86,"Amherst",K1ZQ,communications_transponder,,http://www.poi-factory.com/node/2227,,,,224.02,136.5,NFM,Public,AMATEUR,,,"offset=+"
W1DIO,-71.65,42.84,"Milford",W1DIO,communications_transponder,,http://www.poi-factory.com/node/2227,,,,224.86,136.5,NFM,Public,AMATEUR,,,"offset=+"
KA1ABI,-71.68,41.7,"Coventry",KA1ABI,communications_transponder,,http://www.poi-factory.com/node/2227,,,,223.9,,NFM,Public,AMATEUR,,,"offset=-"
N1EKO,-71.71,42.29,"Shrewsbury",N1EKO,communications_transponder,,http://www.poi-factory.com/node/2227,,,,224.48,,NFM,Public,AMATEUR,,,"offset=-"
AA1JD,-71.76,42.53,"Leominster",AA1JD,communications_transponder,,http://www.poi-factory.com/node/2227,,,,224.76,85.4,NFM,Public,AMATEUR,,,"offset=-"
WB1EWS,-71.8,42.58,"Fitchburg",WB1EWS,communications_transponder,,http://www.poi-factory.com/node/2227,,,,224.34,,NFM,Public,AMATEUR,,,"offset=-"
WR1O,-71.93,42.31,"Paxton",WR1O,communications_transponder,,http://www.poi-factory.com/node/2227,,,,224.38,,NFM,Public,AMATEUR,,,"offset=-"
N1IMO,-71.95,42.87,"Peterborough",N1IMO,communications_transponder,,http://www.poi-factory.com/node/2227,,,,224.82,88.5,NFM,Public,AMATEUR,,,"offset=+"
N1RFL,-71.99,42.24,"Spencer",N1RFL,communications_transponder,,http://www.poi-factory.com/node/2227,,,,224.54,67,NFM,Public,AMATEUR,,,"offset=-"
W1AAA,-71.99,41.45,"Ledyard",W1AAA,communications_transponder,,http://www.poi-factory.com/node/2227,,,,224.38,156.7,NFM,Public,AMATEUR,,,"offset=-"
WA1HOG,-72.01,42.75,"Rindge",WA1HOG,communications_transponder,,http://www.poi-factory.com/node/2227,,,,224.6,85.4,NFM,Public,AMATEUR,,,"offset=+"
AA1JD,-72.04,42.69,"Winchendon",AA1JD,communications_transponder,,http://www.poi-factory.com/node/2227,,,,224.44,,NFM,Public,AMATEUR,,,"offset=-"
W1NLC,-72.08,41.35,"Groton",W1NLC,communications_transponder,,http://www.poi-factory.com/node/2227,,,,223.96,156.7,NFM,Public,AMATEUR,,,"offset=-"
W1NLC,-72.1,41.36,"NewLondon",W1NLC,communications_transponder,,http://www.poi-factory.com/node/2227,,,,224.26,,NFM,Public,AMATEUR,,,"offset=-"
WA1IXU,-72.13,41.45,"Montville",WA1IXU,communications_transponder,,http://www.poi-factory.com/node/2227,,,,224.82,110.9,NFM,Public,AMATEUR,,,"offset=-"
W2HLI,-72.19,40.96,"East",W2HLI,communications_transponder,,http://www.poi-factory.com/node/2227,,,,Hampton,,NFM,Public,AMATEUR,,,"offset=224.6MHz"
W1NAC,-72.21,42.9,"Marlborough",W1NAC,communications_transponder,,http://www.poi-factory.com/node/2227,,,,224.72,85.4,NFM,Public,AMATEUR,,,"offset=+"
WA1VEI,-72.4,42.39,"Pelham",WA1VEI,communications_transponder,,http://www.poi-factory.com/node/2227,,,,224.74,88.5,NFM,Public,AMATEUR,,,"offset=-"
W1TOM,-72.45,41.99,"Somers",W1TOM,communications_transponder,,http://www.poi-factory.com/node/2227,,,,223.82,,NFM,Public,AMATEUR,,,"offset=-"
W1HDN,-72.48,41.82,"Vernon",W1HDN,communications_transponder,,http://www.poi-factory.com/node/2227,,,,224.12,82.5,NFM,Public,AMATEUR,,,"offset=-"
KB1AEV,-72.48,41.82,"Vernon",KB1AEV,communications_transponder,,http://www.poi-factory.com/node/2227,,,,224.36,77,NFM,Public,AMATEUR,,,"offset=-"
KA1DFH,-72.48,41.82,"Vernon",KA1DFH,communications_transponder,,http://www.poi-factory.com/node/2227,,,,224.6,,NFM,Public,AMATEUR,,,"offset=-"
WA1OCK,-72.59,42.1,"Springfield",WA1OCK,communications_transponder,,http://www.poi-factory.com/node/2227,,,,223.94,103.5,NFM,Public,AMATEUR,,,"offset=-"
WA1OCK,-72.59,42.1,"Springfield",WA1OCK,communications_transponder,,http://www.poi-factory.com/node/2227,,,,224.2,103,NFM,Public,AMATEUR,,,"offset=-"
KA1DFH,-72.65,41.71,"Wethersfield",KA1DFH,communications_transponder,,http://www.poi-factory.com/node/2227,,,,224.68,,NFM,Public,AMATEUR,,,"offset=-"
N1XLU,-72.69,41.76,"Hartford",N1XLU,communications_transponder,,http://www.poi-factory.com/node/2227,,,,224.28,114.8,NFM,Public,AMATEUR,,,"offset=-"
N1OGB,-72.72,41.7,"Newington",N1OGB,communications_transponder,,http://www.poi-factory.com/node/2227,,,,224.02,100,NFM,Public,AMATEUR,,,"offset=-"
W1AW,-72.72,41.7,"Newington",W1AW,communications_transponder,,http://www.poi-factory.com/node/2227,,,,224.84,,NFM,Public,AMATEUR,,,"offset=-"
K1HSN,-72.81,41.54,"Meriden",K1HSN,communications_transponder,,http://www.poi-factory.com/node/2227,,,,224.8,77,NFM,Public,AMATEUR,,,"offset=-"
KB1GA,-72.83,41.81,"Avon",KB1GA,communications_transponder,,http://www.poi-factory.com/node/2227,,,,224.94,,NFM,Public,AMATEUR,,,"offset=-"
W2DQ,-72.92,40.84,"Yaphank",W2DQ,communications_transponder,,http://www.poi-factory.com/node/2227,,,,224.68,103.5,NFM,Public,AMATEUR,,,"offset=-"
WA1UFC,-72.93,41.31,"NewHaven",WA1UFC,communications_transponder,,http://www.poi-factory.com/node/2227,,,,224.18,,NFM,Public,AMATEUR,,,"offset=-"
K1KBW,-72.95,41.67,"Bristol",K1KBW,communications_transponder,,http://www.poi-factory.com/node/2227,,,,224.16,77,NFM,Public,AMATEUR,,,"offset=-"
WA1IXU,-72.95,41.67,"Bristol",WA1IXU,communications_transponder,,http://www.poi-factory.com/node/2227,,,,224.22,110.9,NFM,Public,AMATEUR,,,"offset=-"
N1JKA,-73.06,41.22,"Milford",N1JKA,communications_transponder,,http://www.poi-factory.com/node/2227,,,,223.88,,NFM,Public,AMATEUR,,,"offset=-"
KA1LSD,-73.08,41.35,"Ansonia",KA1LSD,communications_transponder,,http://www.poi-factory.com/node/2227,,,,224.42,,NFM,Public,AMATEUR,,,"offset=-"
KC1EB,-73.11,42.7,"North",KC1EB,communications_transponder,,http://www.poi-factory.com/node/2227,,,,Adams,,NFM,Public,AMATEUR,,,"offset=224.96MHz"
W1HDN,-73.12,41.8,"Torrington",W1HDN,communications_transponder,,http://www.poi-factory.com/node/2227,,,,223.78,82.5,NFM,Public,AMATEUR,,,"offset=-"
KB1ALU,-73.12,41.61,"Watertown",KB1ALU,communications_transponder,,http://www.poi-factory.com/node/2227,,,,224.04,151.4,NFM,Public,AMATEUR,,,"offset=-"
K1FFK,-73.15,42.7,"Mt",K1FFK,communications_transponder,,http://www.poi-factory.com/node/2227,,,,Greylock,,NFM,Public,AMATEUR,,,"offset=224.1MHz"
N1FZH,-73.17,42.47,"Dalton",N1FZH,communications_transponder,,http://www.poi-factory.com/node/2227,,,,224.4,,NFM,Public,AMATEUR,,,"offset=-"
WB2MIC,-73.2,43.42,"Wells",WB2MIC,communications_transponder,,http://www.poi-factory.com/node/2227,,,,224.96,,NFM,Public,AMATEUR,,,"offset=-"
KB2UR,-73.25,40.72,"Bayshore",KB2UR,communications_transponder,,http://www.poi-factory.com/node/2227,,,,224.12,131.8,NFM,Public,AMATEUR,,,"offset=-"
N3AQJ,-73.26,41.14,"Fairfield",N3AQJ,communications_transponder,,http://www.poi-factory.com/node/2227,,,,224.1,,NFM,Public,AMATEUR,,,"offset=-"
W2GSB,-73.31,40.71,"WestIslip",W2GSB,communications_transponder,,http://www.poi-factory.com/node/2227,,,,223.86,131.8,NFM,Public,AMATEUR,,,"offset=-"
NA1RA,-73.35,41.74,"Warren",NA1RA,communications_transponder,,http://www.poi-factory.com/node/2227,,,,224.32,77,NFM,Public,AMATEUR,,,"offset=-"
KA1OA,-73.36,42.2,"Great",KA1OA,communications_transponder,,http://www.poi-factory.com/node/2227,,,,Barrington,100,NFM,Public,AMATEUR,,,"offset=223.88MHz"
W2RGM,-73.37,40.82,"DixHills",W2RGM,communications_transponder,,http://www.poi-factory.com/node/2227,,,,224.56,136.5,NFM,Public,AMATEUR,,,"offset=-"
WA2LRE,-73.45,44.7,"Plattsburgh",WA2LRE,communications_transponder,,http://www.poi-factory.com/node/2227,,,,223.96,123,NFM,Public,AMATEUR,,,"offset=-"
W1QI,-73.45,41.39,"Danbury",W1QI,communications_transponder,,http://www.poi-factory.com/node/2227,,,,223.96,100,NFM,Public,AMATEUR,,,"offset=-"
WA2YUD,-73.67,40.64,"East",WA2YUD,communications_transponder,,http://www.poi-factory.com/node/2227,,,,Rockaway,131.8,NFM,Public,AMATEUR,,,"offset=224.54MHz"
W2SZ,-73.69,42.73,"Troy",W2SZ,communications_transponder,,http://www.poi-factory.com/node/2227,,,,224.42,,NFM,Public,AMATEUR,,,"offset=-"
KB2HPW,-73.69,42.73,"Troy",KB2HPW,communications_transponder,,http://www.poi-factory.com/node/2227,,,,224.64,,NFM,Public,AMATEUR,,,"offset=-"
WB2NHO,-73.71,40.75,"Glen",WB2NHO,communications_transponder,,http://www.poi-factory.com/node/2227,,,,Oaks,136.5,NFM,Public,AMATEUR,,,"offset=224.82MHz"
K2HR,-73.73,41.37,"Mahopac",K2HR,communications_transponder,,http://www.poi-factory.com/node/2227,,,,224,74.4,NFM,Public,AMATEUR,,,"offset=-"
K2AD,-73.76,42.65,"Albany",K2AD,communications_transponder,,http://www.poi-factory.com/node/2227,,,,224.14,100,NFM,Public,AMATEUR,,,"offset=-"
WB2ZII,-73.78,41.07,"Valhalla",WB2ZII,communications_transponder,,http://www.poi-factory.com/node/2227,,,,224.4,114.8,NFM,Public,AMATEUR,,,"offset=-"
K2RVW,-73.79,42.25,"Hudson",K2RVW,communications_transponder,,http://www.poi-factory.com/node/2227,,,,224.28,,NFM,Public,AMATEUR,,,"offset=-"
WA2MLG,-73.92,41.09,"Nyack",WA2MLG,communications_transponder,,http://www.poi-factory.com/node/2227,,,,224.38,114.8,NFM,Public,AMATEUR,,,"offset=-"
K2AE,-73.94,42.81,"Schenectady",K2AE,communications_transponder,,http://www.poi-factory.com/node/2227,,,,224.06,,NFM,Public,AMATEUR,,,"offset=-"
W2GIO,-73.95,41.5,"Mount",W2GIO,communications_transponder,,http://www.poi-factory.com/node/2227,,,,Beacon,100,NFM,Public,AMATEUR,,,"offset=223.92MHz"
WA2ZLB,-73.95,40.65,"Brooklyn",WA2ZLB,communications_transponder,,http://www.poi-factory.com/node/2227,,,,223.94,107.2,NFM,Public,AMATEUR,,,"offset=-"
W2CXN,-73.95,40.65,"Brooklyn",W2CXN,communications_transponder,,http://www.poi-factory.com/node/2227,,,,224.1,136.5,NFM,Public,AMATEUR,,,"offset=-"
W2SN,-73.95,40.65,"Brooklyn",W2SN,communications_transponder,,http://www.poi-factory.com/node/2227,,,,224.6,100,NFM,Public,AMATEUR,,,"offset=-"
KD2TM,-74.01,40.71,"Manhattan",KD2TM,communications_transponder,,http://www.poi-factory.com/node/2227,,,,223.9,,NFM,Public,AMATEUR,,,"offset=-"
WA2HDE,-74.01,40.71,"Manhattan",WA2HDE,communications_transponder,,http://www.poi-factory.com/node/2227,,,,224.06,,NFM,Public,AMATEUR,,,"offset=-"
WA2CAM,-74.01,40.71,"Wethersfield",WA2CAM,communications_transponder,,http://www.poi-factory.com/node/2227,,,,224.16,141.3,NFM,Public,AMATEUR,,,"offset=-"
NY4Z,-74.01,40.71,"Manhattan",NY4Z,communications_transponder,,http://www.poi-factory.com/node/2227,,,,224.44,74.4,NFM,Public,AMATEUR,,,"offset=-"
N2XBA,-74.01,40.71,"Manhattan",N2XBA,communications_transponder,,http://www.poi-factory.com/node/2227,,,,224.46,,NFM,Public,AMATEUR,,,"offset=-"
WA2HDE,-74.01,40.71,"Manhattan",WA2HDE,communications_transponder,,http://www.poi-factory.com/node/2227,,,,224.66,,NFM,Public,AMATEUR,,,"offset=-"
KD2VN,-74.02,40.78,"Union",KD2VN,communications_transponder,,http://www.poi-factory.com/node/2227,,,,City,131.8,NFM,Public,AMATEUR,,,"offset=224.2MHz"
W2MMD,-74.03,41,"WashingtonTwp",W2MMD,communications_transponder,,http://www.poi-factory.com/node/2227,,,,224.66,,NFM,Public,AMATEUR,,,"offset=-1.6MHz"
N2ACF,-74.04,41.17,"Pomona",N2ACF,communications_transponder,,http://www.poi-factory.com/node/2227,,,,223.82,114.8,NFM,Public,AMATEUR,,,"offset=-"
WB2IZC,-74.09,40.9,"Saddle",WB2IZC,communications_transponder,,http://www.poi-factory.com/node/2227,,,,Brook,88.5,NFM,Public,AMATEUR,,,"offset=224.42MHz"
WA2UXC,-74.09,40.9,"Saddle",WA2UXC,communications_transponder,,http://www.poi-factory.com/node/2227,,,,Brook,,NFM,Public,AMATEUR,,,"offset=224.52MHz"
N2SMI,-74.13,40.96,"Glen",N2SMI,communications_transponder,,http://www.poi-factory.com/node/2227,,,,Rock,,NFM,Public,AMATEUR,,,"offset=224.34MHz"
W2AEE,-74.14,41.31,"Harriman",W2AEE,communications_transponder,,http://www.poi-factory.com/node/2227,,,,223.8,107.2,NFM,Public,AMATEUR,,,"offset=-"
KB2N,-74.16,40.86,"Clifton",KB2N,communications_transponder,,http://www.poi-factory.com/node/2227,,,,224.36,,NFM,Public,AMATEUR,,,"offset=-1.6MHz"
N4TCT,-74.16,40,"Dover",N4TCT,communications_transponder,,http://www.poi-factory.com/node/2227,,,,Twp,82.5,NFM,Public,AMATEUR,,,"offset=224.72MHz"
KE2TT,-74.17,40.74,"Newark",KE2TT,communications_transponder,,http://www.poi-factory.com/node/2227,,,,224.22,74.4,NFM,Public,AMATEUR,,,"offset=-1.6MHz"
W2KB,-74.17,40.74,"Newark",W2KB,communications_transponder,,http://www.poi-factory.com/node/2227,,,,224.28,123,NFM,Public,AMATEUR,,,"offset=-1.6MHz"
KB2SEY,-74.19,40.42,"Hazlet",KB2SEY,communications_transponder,,http://www.poi-factory.com/node/2227,,,,224.96,,NFM,Public,AMATEUR,,,"offset=-1.6MHz"
N2AYM,-74.22,40.1,"Lakewood",N2AYM,communications_transponder,,http://www.poi-factory.com/node/2227,,,,223.82,162.2,NFM,Public,AMATEUR,,,"offset=-1.6MHz"
N2CKH,-74.22,40.1,"Lakewood",N2CKH,communications_transponder,,http://www.poi-factory.com/node/2227,,,,224.12,156.7,NFM,Public,AMATEUR,,,"offset=-1.6MHz"
N2NF,-74.22,39.75,"Barnegat",N2NF,communications_transponder,,http://www.poi-factory.com/node/2227,,,,224.28,,NFM,Public,AMATEUR,,,"offset=-1.6MHz"
K2DEE,-74.24,40.83,"Verona",K2DEE,communications_transponder,,http://www.poi-factory.com/node/2227,,,,224.48,,NFM,Public,AMATEUR,,,"offset=-1.6MHz"
W2PQG,-74.29,41.04,"Wanaque",W2PQG,communications_transponder,,http://www.poi-factory.com/node/2227,,,,224.84,141.3,NFM,Public,AMATEUR,,,"offset=-1.6MHz"
K2JJI,-74.35,43.05,"Gloversville",K2JJI,communications_transponder,,http://www.poi-factory.com/node/2227,,,,224.7,,NFM,Public,AMATEUR,,,"offset=-"
N2RDM,-74.35,40.1,"Jackson",N2RDM,communications_transponder,,http://www.poi-factory.com/node/2227,,,,224.3,,NFM,Public,AMATEUR,,,"offset=-1.6MHz"
N2ETY,-74.39,41.67,"Cragsmoor",N2ETY,communications_transponder,,http://www.poi-factory.com/node/2227,,,,224.6,,NFM,Public,AMATEUR,,,"offset=-"
WA2PTD,-74.41,40.9,"Boonton",WA2PTD,communications_transponder,,http://www.poi-factory.com/node/2227,,,,224.86,,NFM,Public,AMATEUR,,,"offset=-1.6MHz"
WR2MSN,-74.42,41.45,"Middletown",WR2MSN,communications_transponder,,http://www.poi-factory.com/node/2227,,,,224.54,156.7,NFM,Public,AMATEUR,,,"offset=-"
N2JKG,-74.44,43.85,"Blue",N2JKG,communications_transponder,,http://www.poi-factory.com/node/2227,,,,Mtn,123,NFM,Public,AMATEUR,,,"offset=none"
K2ETS,-74.48,40.6,"Green",K2ETS,communications_transponder,,http://www.poi-factory.com/node/2227,,,,Brook,,NFM,Public,AMATEUR,,,"offset=223.96MHz"
WX3K,-74.56,40.6,"Martinsville",WX3K,communications_transponder,,http://www.poi-factory.com/node/2227,,,,224.88,103.5,NFM,Public,AMATEUR,,,"offset=-1.6MHz"
W3PS,-74.57,39.28,"Ocean",W3PS,communications_transponder,,http://www.poi-factory.com/node/2227,,,,City,156.7,NFM,Public,AMATEUR,,,"offset=223.98MHz"
K2NI,-74.58,40.13,"Ellisdale",K2NI,communications_transponder,,http://www.poi-factory.com/node/2227,,,,224.16,,NFM,Public,AMATEUR,,,"offset=-1.6MHz"
KA2JZO,-74.58,39.97,"Browns",KA2JZO,communications_transponder,,http://www.poi-factory.com/node/2227,,,,Mills,131.8,NFM,Public,AMATEUR,,,"offset=224.86MHz"
K2PM,-74.7,40.28,"Mt",K2PM,communications_transponder,,http://www.poi-factory.com/node/2227,,,,Kipp,203.5,NFM,Public,AMATEUR,,,"offset=224.12MHz"
W2UG,-74.7,40.28,"Ocean",W2UG,communications_transponder,,http://www.poi-factory.com/node/2227,,,,Twp,156.7,NFM,Public,AMATEUR,,,"offset=224.38MHz"
W2LV,-74.75,41.06,"Newton",W2LV,communications_transponder,,http://www.poi-factory.com/node/2227,,,,224.5,151.4,NFM,Public,AMATEUR,,,"offset=-1.6MHz"
KC2AWM,-74.82,42.55,"Schenevus",KC2AWM,communications_transponder,,http://www.poi-factory.com/node/2227,,,,223.96,100,NFM,Public,AMATEUR,,,"offset=-"
W2MX,-74.85,39.72,"WaterfordWks",W2MX,communications_transponder,,http://www.poi-factory.com/node/2227,,,,224.62,,NFM,Public,AMATEUR,,,"offset=-1.6MHz"
NC2C,-74.88,42.83,"Sprngfld",NC2C,communications_transponder,,http://www.poi-factory.com/node/2227,,,,Ctr,,NFM,Public,AMATEUR,,,"offset=224.98MHz"
K2PM,-74.91,40.56,"Cherryville",K2PM,communications_transponder,,http://www.poi-factory.com/node/2227,,,,224.6,203.5,NFM,Public,AMATEUR,,,"offset=-1.6MHz"
N3OUT,-74.91,38.94,"Cape",N3OUT,communications_transponder,,http://www.poi-factory.com/node/2227,,,,May,167.9,NFM,Public,AMATEUR,,,"offset=224.54MHz"
N3SP,-75.01,40.14,"Feasterville",N3SP,communications_transponder,,http://www.poi-factory.com/node/2227,,,,223.8,,NFM,Public,AMATEUR,,,"offset=-"
WB3BLG,-75.01,40.14,"Feasterville",WB3BLG,communications_transponder,,http://www.poi-factory.com/node/2227,,,,224.98,,NFM,Public,AMATEUR,,,"offset=-"
W3CCX,-75.02,40.19,"Churchville",W3CCX,communications_transponder,,http://www.poi-factory.com/node/2227,,,,224.58,,NFM,Public,AMATEUR,,,"offset=-"
W2SCR,-75.04,39.4,"Millville",W2SCR,communications_transponder,,http://www.poi-factory.com/node/2227,,,,223.96,123,NFM,Public,AMATEUR,,,"offset=-1.6MHz"
K3NAL,-75.1,40.21,"Warminster",K3NAL,communications_transponder,,http://www.poi-factory.com/node/2227,,,,223.76,186.2,NFM,Public,AMATEUR,,,"offset=-"
WB3EHB,-75.16,39.95,"Philadelphia",WB3EHB,communications_transponder,,http://www.poi-factory.com/node/2227,,,,224.06,,NFM,Public,AMATEUR,,,"offset=-"
K3TU,-75.16,39.95,"Philadelphia",K3TU,communications_transponder,,http://www.poi-factory.com/node/2227,,,,224.8,131.8,NFM,Public,AMATEUR,,,"offset=-"
W3EXW,-75.17,40.11,"North",W3EXW,communications_transponder,,http://www.poi-factory.com/node/2227,,,,Hills,,NFM,Public,AMATEUR,,,"offset=224.1MHz"
W3DBZ,-75.21,40.29,"Chalfont",W3DBZ,communications_transponder,,http://www.poi-factory.com/node/2227,,,,223.9,,NFM,Public,AMATEUR,,,"offset=-"
KB3AJF,-75.22,40.69,"Easton",KB3AJF,communications_transponder,,http://www.poi-factory.com/node/2227,,,,224.74,,NFM,Public,AMATEUR,,,"offset=-"
WA2CAV,-75.23,43.1,"Utica",WA2CAV,communications_transponder,,http://www.poi-factory.com/node/2227,,,,224.66,,NFM,Public,AMATEUR,,,"offset=-"
KB3LRA,-75.23,39.43,"Bridgeton",KB3LRA,communications_transponder,,http://www.poi-factory.com/node/2227,,,,224.82,141.3,NFM,Public,AMATEUR,,,"offset=-1.6MHz"
KA3ODJ,-75.25,40.87,"Pen",KA3ODJ,communications_transponder,,http://www.poi-factory.com/node/2227,,,,Argyl,203.5,NFM,Public,AMATEUR,,,"offset=224.14MHz"
KA3TWG,-75.25,38.55,"Dagsboro",KA3TWG,communications_transponder,,http://www.poi-factory.com/node/2227,,,,224.88,,NFM,Public,AMATEUR,,,"offset=-"
W3UER,-75.26,39.92,"Darby",W3UER,communications_transponder,,http://www.poi-factory.com/node/2227,,,,224.5,131.8,NFM,Public,AMATEUR,,,"offset=-"
N3FCX,-75.29,39.9,"Glenolden",N3FCX,communications_transponder,,http://www.poi-factory.com/node/2227,,,,224.1,,NFM,Public,AMATEUR,,,"offset=-"
K3JL,-75.29,38.59,"Millsboro",K3JL,communications_transponder,,http://www.poi-factory.com/node/2227,,,,224.84,,NFM,Public,AMATEUR,,,"offset=-"
WB3JOE,-75.3,40.02,"Bryn",WB3JOE,communications_transponder,,http://www.poi-factory.com/node/2227,,,,Mawr,,NFM,Public,AMATEUR,,,"offset=224.42MHz"
KB3DCM,-75.31,41.04,"Tannersville",KB3DCM,communications_transponder,,http://www.poi-factory.com/node/2227,,,,224.66,71.9,NFM,Public,AMATEUR,,,"offset=-"
W3PS,-75.34,40.44,"Quakertown",W3PS,communications_transponder,,http://www.poi-factory.com/node/2227,,,,224.4,156.7,NFM,Public,AMATEUR,,,"offset=-"
WB3KRW,-75.34,40.44,"Quakertown",WB3KRW,communications_transponder,,http://www.poi-factory.com/node/2227,,,,224.9,,NFM,Public,AMATEUR,,,"offset=-"
N3CDP,-75.34,40.12,"Norristown",N3CDP,communications_transponder,,http://www.poi-factory.com/node/2227,,,,223.86,,NFM,Public,AMATEUR,,,"offset=-"
KM3W,-75.36,39.98,"Broomall",KM3W,communications_transponder,,http://www.poi-factory.com/node/2227,,,,224.7,131.8,NFM,Public,AMATEUR,,,"offset=-"
W3PS,-75.36,39.85,"Chester",W3PS,communications_transponder,,http://www.poi-factory.com/node/2227,,,,224.96,156.7,NFM,Public,AMATEUR,,,"offset=-"
N3CVJ,-75.39,40.16,"Fairview",N3CVJ,communications_transponder,,http://www.poi-factory.com/node/2227,,,,Village,,NFM,Public,AMATEUR,,,"offset=224.2MHz"
W3PS,-75.41,40.16,"Eagleville",W3PS,communications_transponder,,http://www.poi-factory.com/node/2227,,,,224.68,156.7,NFM,Public,AMATEUR,,,"offset=-"
KB3WW,-75.46,41.05,"Long",KB3WW,communications_transponder,,http://www.poi-factory.com/node/2227,,,,Pond,131.8,NFM,Public,AMATEUR,,,"offset=224.34MHz"
W3PHL,-75.46,40.1,"Valley",W3PHL,communications_transponder,,http://www.poi-factory.com/node/2227,,,,Forge,,NFM,Public,AMATEUR,,,"offset=224.94MHz"
N2KEJ,-75.47,39.57,"Salem",N2KEJ,communications_transponder,,http://www.poi-factory.com/node/2227,,,,224.46,77,NFM,Public,AMATEUR,,,"offset=-1.6MHz"
W3VU,-75.49,39.92,"GlenMills",W3VU,communications_transponder,,http://www.poi-factory.com/node/2227,,,,224.98,,NFM,Public,AMATEUR,,,"offset=-"
K3WAJ,-75.55,39.75,"Wilmington",K3WAJ,communications_transponder,,http://www.poi-factory.com/node/2227,,,,224,,NFM,Public,AMATEUR,,,"offset=-"
KA2NIL,-75.57,43.14,"Verona",KA2NIL,communications_transponder,,http://www.poi-factory.com/node/2227,,,,224.26,,NFM,Public,AMATEUR,,,"offset=-"
KA3TWG,-75.57,39.66,"New",KA3TWG,communications_transponder,,http://www.poi-factory.com/node/2227,,,,Castle,,NFM,Public,AMATEUR,,,"offset=224.22MHz"
N3FJM,-75.58,38.46,"Delmar",N3FJM,communications_transponder,,http://www.poi-factory.com/node/2227,,,,224.02,,NFM,Public,AMATEUR,,,"offset=-"
W3WMD,-75.59,38.81,"Greenwood",W3WMD,communications_transponder,,http://www.poi-factory.com/node/2227,,,,224.44,,NFM,Public,AMATEUR,,,"offset=-"
N3DVF,-75.61,40.8,"Palmerton",N3DVF,communications_transponder,,http://www.poi-factory.com/node/2227,,,,224.26,,NFM,Public,AMATEUR,,,"offset=-"
K3ZMC,-75.65,40.25,"Pottstown",K3ZMC,communications_transponder,,http://www.poi-factory.com/node/2227,,,,224.02,,NFM,Public,AMATEUR,,,"offset=-"
AA3VI,-75.75,39.99,"Thorndale",AA3VI,communications_transponder,,http://www.poi-factory.com/node/2227,,,,224.36,,NFM,Public,AMATEUR,,,"offset=-"
WB2LSP,-75.75,39.68,"Newark",WB2LSP,communications_transponder,,http://www.poi-factory.com/node/2227,,,,224.54,,NFM,Public,AMATEUR,,,"offset=-"
N3JCR,-75.75,39.68,"Newark",N3JCR,communications_transponder,,http://www.poi-factory.com/node/2227,,,,224.72,,NFM,Public,AMATEUR,,,"offset=-"
N3DAP,-75.85,41.27,"Wilkes-Barre",N3DAP,communications_transponder,,http://www.poi-factory.com/node/2227,,,,224.42,94.8,NFM,Public,AMATEUR,,,"offset=-"
N3JDV,-75.85,41.27,"Wilkes-Barre",N3JDV,communications_transponder,,http://www.poi-factory.com/node/2227,,,,224.6,,NFM,Public,AMATEUR,,,"offset=-"
KJ6AL,-75.92,39.96,"Parkesburg",KJ6AL,communications_transponder,,http://www.poi-factory.com/node/2227,,,,223.94,,NFM,Public,AMATEUR,,,"offset=-"
N3JCN,-75.92,39.96,"Parkesburg",N3JCN,communications_transponder,,http://www.poi-factory.com/node/2227,,,,224.04,,NFM,Public,AMATEUR,,,"offset=-"
K3UIP,-75.93,40.34,"Reading",K3UIP,communications_transponder,,http://www.poi-factory.com/node/2227,,,,224.16,146.2,NFM,Public,AMATEUR,,,"offset=-"
K3TI,-75.93,40.34,"Reading",K3TI,communications_transponder,,http://www.poi-factory.com/node/2227,,,,224.64,114.8,NFM,Public,AMATEUR,,,"offset=-"
AA2EQ,-76.05,42.09,"Vestal",AA2EQ,communications_transponder,,http://www.poi-factory.com/node/2227,,,,224.48,88.5,NFM,Public,AMATEUR,,,"offset=-"
W2YPP,-76.15,43.05,"Syracuse",W2YPP,communications_transponder,,http://www.poi-factory.com/node/2227,,,,224.12,,NFM,Public,AMATEUR,,,"offset=-"
W4LG,-76.27,36.82,"Chesapeake",W4LG,communications_transponder,,http://www.poi-factory.com/node/2227,,,,224.98,,NFM,Public,AMATEUR,,,"offset=-"
KC4JGC,-76.29,36.85,"Norfolk",KC4JGC,communications_transponder,,http://www.poi-factory.com/node/2227,,,,224.74,100,NFM,Public,AMATEUR,,,"offset=-"
KA3CNT,-76.31,40.16,"Lititz",KA3CNT,communications_transponder,,http://www.poi-factory.com/node/2227,,,,224.44,,NFM,Public,AMATEUR,,,"offset=-"
AA4HQ,-76.34,37.55,"Deltaville",AA4HQ,communications_transponder,,http://www.poi-factory.com/node/2227,,,,224.9,,NFM,Public,AMATEUR,,,"offset=-"
WB4PVT,-76.35,37.03,"Hampton",WB4PVT,communications_transponder,,http://www.poi-factory.com/node/2227,,,,224.54,100,NFM,Public,AMATEUR,,,"offset=-"
N3TPL,-76.41,40.27,"Cornwall",N3TPL,communications_transponder,,http://www.poi-factory.com/node/2227,,,,224.82,114.8,NFM,Public,AMATEUR,,,"offset=-"
KA3CNT,-76.41,40.27,"Cornwall",KA3CNT,communications_transponder,,http://www.poi-factory.com/node/2227,,,,224.84,131.8,NFM,Public,AMATEUR,,,"offset=-"
WA3UMY,-76.45,38.27,"Lexington",WA3UMY,communications_transponder,,http://www.poi-factory.com/node/2227,,,,Park,,NFM,Public,AMATEUR,,,"offset=223.9MHz"
W4GSF,-76.52,37.42,"Gloucester",W4GSF,communications_transponder,,http://www.poi-factory.com/node/2227,,,,224.62,,NFM,Public,AMATEUR,,,"offset=-"
WA3WPA,-76.61,39.9,"RedLion",WA3WPA,communications_transponder,,http://www.poi-factory.com/node/2227,,,,224.32,,NFM,Public,AMATEUR,,,"offset=-"
WA3DZZ,-76.61,39.29,"Baltimore",WA3DZZ,communications_transponder,,http://www.poi-factory.com/node/2227,,,,224.96,,NFM,Public,AMATEUR,,,"offset=-"
KB7BTU,-76.75,35.87,"Plymouth",KB7BTU,communications_transponder,,http://www.poi-factory.com/node/2227,,,,224.76,131.8,NFM,Public,AMATEUR,,,"offset=-"
NR2P,-76.81,42.09,"Elmira",NR2P,communications_transponder,,http://www.poi-factory.com/node/2227,,,,223.98,,NFM,Public,AMATEUR,,,"offset=-"
WB2VPY,-76.81,42.09,"Elmira",WB2VPY,communications_transponder,,http://www.poi-factory.com/node/2227,,,,224.22,,NFM,Public,AMATEUR,,,"offset=-"
224.5,-77.04,38.9,"Washington",224.5,communications_transponder,,http://www.poi-factory.com/node/2227,,,,,DC,NFM,Public,AMATEUR,,,"offset="
WB4PAC,-77.19,35.56,"Grimesland",WB4PAC,communications_transponder,,http://www.poi-factory.com/node/2227,,,,224.36,,NFM,Public,AMATEUR,,,"offset=-"
W4IY,-77.25,38.66,"Woodbridge",W4IY,communications_transponder,,http://www.poi-factory.com/node/2227,,,,224.78,,NFM,Public,AMATEUR,,,"offset=-"
KA2CKR,-77.28,43.22,"Ontario",KA2CKR,communications_transponder,,http://www.poi-factory.com/node/2227,,,,224.02,,NFM,Public,AMATEUR,,,"offset=-"
W4YHD,-77.31,38.85,"Fairfax",W4YHD,communications_transponder,,http://www.poi-factory.com/node/2227,,,,224.1,,NFM,Public,AMATEUR,,,"offset=-"
W4YHD,-77.31,38.85,"Fairfax",W4YHD,communications_transponder,,http://www.poi-factory.com/node/2227,,,,224.1,,NFM,Public,AMATEUR,,,"offset=-77.91MHz"
WA4DAN,-77.35,35.07,"Trenton",WA4DAN,communications_transponder,,http://www.poi-factory.com/node/2227,,,,224.72,,NFM,Public,AMATEUR,,,"offset=-"
NR2M,-77.4,42.73,"South",NR2M,communications_transponder,,http://www.poi-factory.com/node/2227,,,,Bristol,110.9,NFM,Public,AMATEUR,,,"offset=224.46MHz"
K3MAD,-77.41,39.41,"Frederick",K3MAD,communications_transponder,,http://www.poi-factory.com/node/2227,,,,224.2,123,NFM,Public,AMATEUR,,,"offset=-"
K4ARO,-77.41,37.23,"Petersburg",K4ARO,communications_transponder,,http://www.poi-factory.com/node/2227,,,,224.7,,NFM,Public,AMATEUR,,,"offset=-"
W2IMT,-77.42,42.85,"Bristol",W2IMT,communications_transponder,,http://www.poi-factory.com/node/2227,,,,224.68,110.9,NFM,Public,AMATEUR,,,"offset=-"
KA4SQN,-77.43,34.75,"Jacksonville",KA4SQN,communications_transponder,,http://www.poi-factory.com/node/2227,,,,224.32,,NFM,Public,AMATEUR,,,"offset=-"
WA4DAN,-77.44,35.37,"Grifton",WA4DAN,communications_transponder,,http://www.poi-factory.com/node/2227,,,,224.84,,NFM,Public,AMATEUR,,,"offset=-"
K3QFW,-77.45,41.14,"Lock",K3QFW,communications_transponder,,http://www.poi-factory.com/node/2227,,,,Haven,,NFM,Public,AMATEUR,,,"offset=224.4MHz"
K4MQF,-77.59,38.2,"Spotsylvania",K4MQF,communications_transponder,,http://www.poi-factory.com/node/2227,,,,224.9,100,NFM,Public,AMATEUR,,,"offset=-"
KE2MK,-77.62,43.15,"Rochester",KE2MK,communications_transponder,,http://www.poi-factory.com/node/2227,,,,224.26,,NFM,Public,AMATEUR,,,"offset=-"
N2HJD,-77.62,43.15,"Rochester",N2HJD,communications_transponder,,http://www.poi-factory.com/node/2227,,,,224.58,110.9,NFM,Public,AMATEUR,,,"offset=-"
WS2F,-77.62,43.15,"Rochester",WS2F,communications_transponder,,http://www.poi-factory.com/node/2227,,,,224.9,,NFM,Public,AMATEUR,,,"offset=-"
NF4C,-77.79,35.94,"Rocky",NF4C,communications_transponder,,http://www.poi-factory.com/node/2227,,,,Mount,,NFM,Public,AMATEUR,,,"offset=224.22MHz"
KR4AA,-77.79,35.94,"Rocky",KR4AA,communications_transponder,,http://www.poi-factory.com/node/2227,,,,Mount,,NFM,Public,AMATEUR,,,"offset=224.58MHz"
K3PHL,-77.82,40.91,"CenterCity",K3PHL,communications_transponder,,http://www.poi-factory.com/node/2227,,,,224.18,127.3,NFM,Public,AMATEUR,,,"offset=-"
N3CB,-77.82,40.91,"Plymouth",N3CB,communications_transponder,,http://www.poi-factory.com/node/2227,,,,Twp,,NFM,Public,AMATEUR,,,"offset=224.76MHz"
WA4US,-77.95,34.23,"Wilmington",WA4US,communications_transponder,,http://www.poi-factory.com/node/2227,,,,224.2,,NFM,Public,AMATEUR,,,"offset=-"
AD4DN,-77.95,34.23,"Wilmington",AD4DN,communications_transponder,,http://www.poi-factory.com/node/2227,,,,224.5,88.5,NFM,Public,AMATEUR,,,"offset=-"
WB4KPF,-77.95,34.23,"Wilmington",WB4KPF,communications_transponder,,http://www.poi-factory.com/node/2227,,,,224.68,,NFM,Public,AMATEUR,,,"offset=-"
N3HXT,-78.16,39.19,"Winchester",N3HXT,communications_transponder,,http://www.poi-factory.com/node/2227,,,,224.22,,NFM,Public,AMATEUR,,,"offset=-"
K2XZ,-78.48,42.49,"Delevan",K2XZ,communications_transponder,,http://www.poi-factory.com/node/2227,,,,224.2,,NFM,Public,AMATEUR,,,"offset=-"
N4HRV,-78.48,38.03,"Charlottesville",N4HRV,communications_transponder,,http://www.poi-factory.com/node/2227,,,,224.14,88.5,NFM,Public,AMATEUR,,,"offset=-"
WA4TFZ,-78.48,38.03,"Charlottesville",WA4TFZ,communications_transponder,,http://www.poi-factory.com/node/2227,,,,224.76,,NFM,Public,AMATEUR,,,"offset=-"
K3NQT,-78.5,40.02,"Bedford",K3NQT,communications_transponder,,http://www.poi-factory.com/node/2227,,,,224.48,,NFM,Public,AMATEUR,,,"offset=-"
K4YW,-78.53,37.57,"Brumley",K4YW,communications_transponder,,http://www.poi-factory.com/node/2227,,,,Mtn,77,NFM,Public,AMATEUR,,,"offset=224.1MHz"
W4JAS,-78.53,37.57,"Hampden",W4JAS,communications_transponder,,http://www.poi-factory.com/node/2227,,,,224.2,,NFM,Public,AMATEUR,,,"offset=-"
W4LG,-78.53,37.57,"Lake",W4LG,communications_transponder,,http://www.poi-factory.com/node/2227,,,,Gaston,,NFM,Public,AMATEUR,,,"offset=224.6MHz"
N2CVQ,-78.61,42.77,"East",N2CVQ,communications_transponder,,http://www.poi-factory.com/node/2227,,,,Aurora,88.5,NFM,Public,AMATEUR,,,"offset=223.94MHz"
WB2OXB,-78.61,42.77,"East",WB2OXB,communications_transponder,,http://www.poi-factory.com/node/2227,,,,Aurora,,NFM,Public,AMATEUR,,,"offset=224.1MHz"
KC2P,-78.64,42.85,"Elma",KC2P,communications_transponder,,http://www.poi-factory.com/node/2227,,,,224.66,,NFM,Public,AMATEUR,,,"offset=-"
W4RNC,-78.64,35.77,"Raleigh",W4RNC,communications_transponder,,http://www.poi-factory.com/node/2227,,,,224.64,,NFM,Public,AMATEUR,,,"offset=-"
W2SO,-78.67,42.9,"Lancaster",W2SO,communications_transponder,,http://www.poi-factory.com/node/2227,,,,224.64,107.2,NFM,Public,AMATEUR,,,"offset=-"
K2MJ,-78.69,43.17,"Lockport",K2MJ,communications_transponder,,http://www.poi-factory.com/node/2227,,,,224.36,107.2,NFM,Public,AMATEUR,,,"offset=-"
K2AER,-78.71,43.29,"Newfane",K2AER,communications_transponder,,http://www.poi-factory.com/node/2227,,,,224.94,88.5,NFM,Public,AMATEUR,,,"offset=-"
WA2BTW,-78.74,42.77,"Orchard",WA2BTW,communications_transponder,,http://www.poi-factory.com/node/2227,,,,Park,88.5,NFM,Public,AMATEUR,,,"offset=224.14MHz"
W4JYV,-78.78,35.79,"Cary",W4JYV,communications_transponder,,http://www.poi-factory.com/node/2227,,,,224.88,88.5,NFM,Public,AMATEUR,,,"offset=-"
KM4TC,-78.87,35.56,"Duncan",KM4TC,communications_transponder,,http://www.poi-factory.com/node/2227,,,,224.7,88.5,NFM,Public,AMATEUR,,,"offset=-"
W2EUP,-78.88,42.89,"Buffalo",W2EUP,communications_transponder,,http://www.poi-factory.com/node/2227,,,,224.82,,NFM,Public,AMATEUR,,,"offset=-"
KA4RCL,-78.89,38.07,"Waynesboro",KA4RCL,communications_transponder,,http://www.poi-factory.com/node/2227,,,,224.68,131.8,NFM,Public,AMATEUR,,,"offset=-"
W3IW,-78.92,40.33,"Johnstown",W3IW,communications_transponder,,http://www.poi-factory.com/node/2227,,,,224.26,,NFM,Public,AMATEUR,,,"offset=-"
KK3L,-79.03,39.81,"Meyersdale",KK3L,communications_transponder,,http://www.poi-factory.com/node/2227,,,,224.52,,NFM,Public,AMATEUR,,,"offset=-"
KE4CKJ,-79.07,38.15,"Staunton",KE4CKJ,communications_transponder,,http://www.poi-factory.com/node/2227,,,,224.3,131.8,NFM,Public,AMATEUR,,,"offset=-"
AB4M,-79.14,37.41,"Lynchburg",AB4M,communications_transponder,,http://www.poi-factory.com/node/2227,,,,224.28,,NFM,Public,AMATEUR,,,"offset=-"
W3MMY,-79.15,40.62,"Indiana",W3MMY,communications_transponder,,http://www.poi-factory.com/node/2227,,,,224.9,,NFM,Public,AMATEUR,,,"offset=-"
WA1YYN,-79.17,36.08,"Efland",WA1YYN,communications_transponder,,http://www.poi-factory.com/node/2227,,,,224.66,107.2,NFM,Public,AMATEUR,,,"offset=-"
KC4KUL,-79.17,35.48,"Big",KC4KUL,communications_transponder,,http://www.poi-factory.com/node/2227,,,,Phoenix,100,NFM,Public,AMATEUR,,,"offset=none"
WR4BEG,-79.17,35.48,"Randlem",WR4BEG,communications_transponder,,http://www.poi-factory.com/node/2227,,,,224.14,,NFM,Public,AMATEUR,,,"offset=-"
KG4JIA,-79.17,35.48,"Cherry",KG4JIA,communications_transponder,,http://www.poi-factory.com/node/2227,,,,Mtn,71.9,NFM,Public,AMATEUR,,,"offset=224.64MHz"
KD4JFN,-79.36,36.09,"HawRiver",KD4JFN,communications_transponder,,http://www.poi-factory.com/node/2227,,,,224.62,107.2,NFM,Public,AMATEUR,,,"offset=-"
WA1ZMS,-79.52,37.33,"Bedford",WA1ZMS,communications_transponder,,http://www.poi-factory.com/node/2227,,,,224.18,100,NFM,Public,AMATEUR,,,"offset=-"
N4PLV,-79.52,37.33,"Bedford",N4PLV,communications_transponder,,http://www.poi-factory.com/node/2227,,,,224.84,,NFM,Public,AMATEUR,,,"offset=-"
N1RS,-79.57,40.58,"Apollo",N1RS,communications_transponder,,http://www.poi-factory.com/node/2227,,,,224.3,131.8,NFM,Public,AMATEUR,,,"offset=-"
KA3HUK,-79.59,40.89,"Cowansville",KA3HUK,communications_transponder,,http://www.poi-factory.com/node/2227,,,,224.18,,NFM,Public,AMATEUR,,,"offset=-"
KE3PD,-79.64,41.92,"Corry",KE3PD,communications_transponder,,http://www.poi-factory.com/node/2227,,,,224.06,186.2,NFM,Public,AMATEUR,,,"offset=-"
N4JJ,-79.76,34.2,"Florence",N4JJ,communications_transponder,,http://www.poi-factory.com/node/2227,,,,224.94,,NFM,Public,AMATEUR,,,"offset=-"
K3MJW,-79.77,40.57,"New",K3MJW,communications_transponder,,http://www.poi-factory.com/node/2227,,,,Kensington,131.8,NFM,Public,AMATEUR,,,"offset=224.64MHz"
WB4GUG,-79.79,36.07,"Greensboro",WB4GUG,communications_transponder,,http://www.poi-factory.com/node/2227,,,,224.44,107.2,NFM,Public,AMATEUR,,,"offset=-"
N4QVI,-79.79,36.07,"Greensboro",N4QVI,communications_transponder,,http://www.poi-factory.com/node/2227,,,,224.96,,NFM,Public,AMATEUR,,,"offset=-"
N3QCR,-79.83,41.4,"Franklin",N3QCR,communications_transponder,,http://www.poi-factory.com/node/2227,,,,224.74,,NFM,Public,AMATEUR,,,"offset=-"
KC8CSE,-79.83,38.42,"Greenbank",KC8CSE,communications_transponder,,http://www.poi-factory.com/node/2227,,,,224.56,123,NFM,Public,AMATEUR,,,"offset=-"
WS4W,-79.86,36.58,"Ridgeway",WS4W,communications_transponder,,http://www.poi-factory.com/node/2227,,,,224.38,,NFM,Public,AMATEUR,,,"offset=-"
W3RON,-79.87,40.1,"Long",W3RON,communications_transponder,,http://www.poi-factory.com/node/2227,,,,Branch,,NFM,Public,AMATEUR,,,"offset=223.86MHz"
K4RCA,-79.87,36.69,"Martinsville",K4RCA,communications_transponder,,http://www.poi-factory.com/node/2227,,,,224.5,,NFM,Public,AMATEUR,,,"offset=-"
WA3PBD,-79.91,40.41,"Homestead",WA3PBD,communications_transponder,,http://www.poi-factory.com/node/2227,,,,223.94,,NFM,Public,AMATEUR,,,"offset=-"
KA3IDK,-79.91,40.41,"Homestead",KA3IDK,communications_transponder,,http://www.poi-factory.com/node/2227,,,,224.14,,NFM,Public,AMATEUR,,,"offset=-"
N3OVP,-79.93,40.2,"Monongahela",N3OVP,communications_transponder,,http://www.poi-factory.com/node/2227,,,,223.9,,NFM,Public,AMATEUR,,,"offset=-"
N4CH,-79.94,37.27,"Roanoke",N4CH,communications_transponder,,http://www.poi-factory.com/node/2227,,,,224.1,,NFM,Public,AMATEUR,,,"offset=-"
K4YDG,-79.94,37.27,"Roanoke",K4YDG,communications_transponder,,http://www.poi-factory.com/node/2227,,,,224.9,,NFM,Public,AMATEUR,,,"offset=-"
N2EDE,-79.94,37.27,"Roanoke",N2EDE,communications_transponder,,http://www.poi-factory.com/node/2227,,,,224.94,107.2,NFM,Public,AMATEUR,,,"offset=-"
WA4BVW,-79.96,35.75,"Mt",WA4BVW,communications_transponder,,http://www.poi-factory.com/node/2227,,,,Pisgah,,NFM,Public,AMATEUR,,,"offset=224.26MHz"
K3RS,-80.01,40.7,"Mars",K3RS,communications_transponder,,http://www.poi-factory.com/node/2227,,,,224.94,,NFM,Public,AMATEUR,,,"offset=-"
WA3QYV,-80.01,40.12,"Bentleyville",WA3QYV,communications_transponder,,http://www.poi-factory.com/node/2227,,,,224.58,,NFM,Public,AMATEUR,,,"offset=-"
N3HWW,-80.05,40.9,"Prospect",N3HWW,communications_transponder,,http://www.poi-factory.com/node/2227,,,,224.24,,NFM,Public,AMATEUR,,,"offset=-"
W4PBC,-80.05,26.71,"West",W4PBC,communications_transponder,,http://www.poi-factory.com/node/2227,,,,Palm,,NFM,Public,AMATEUR,,,"offset=none"
KA3HUK,-80.06,41.06,"Slippery",KA3HUK,communications_transponder,,http://www.poi-factory.com/node/2227,,,,Rock,,NFM,Public,AMATEUR,,,"offset=224.84MHz"
KA3HUK,-80.06,40.77,"Evans",KA3HUK,communications_transponder,,http://www.poi-factory.com/node/2227,,,,City,,NFM,Public,AMATEUR,,,"offset=224.98MHz"
WB3HDI,-80.08,40.41,"Carnegie",WB3HDI,communications_transponder,,http://www.poi-factory.com/node/2227,,,,224.2,,NFM,Public,AMATEUR,,,"offset=-"
WW4DC,-80.08,35.88,"Thomasville",WW4DC,communications_transponder,,http://www.poi-factory.com/node/2227,,,,224.34,88.5,NFM,Public,AMATEUR,,,"offset=-"
WB2GZM,-80.09,42.13,"Erie",WB2GZM,communications_transponder,,http://www.poi-factory.com/node/2227,,,,224.92,,NFM,Public,AMATEUR,,,"offset=-"
KE4WBO,-80.09,26.93,"Jupiter",KE4WBO,communications_transponder,,http://www.poi-factory.com/node/2227,,,,224.24,100,NFM,Public,AMATEUR,,,"offset=-"
KC8LRN,-80.12,38.41,"SlatyFork",KC8LRN,communications_transponder,,http://www.poi-factory.com/node/2227,,,,224.72,91.5,NFM,Public,AMATEUR,,,"offset=-"
W4GCC,-80.13,26.24,"Pompano",W4GCC,communications_transponder,,http://www.poi-factory.com/node/2227,,,,Beach,,NFM,Public,AMATEUR,,,"offset=224.46MHz"
KB4JDE,-80.13,25.79,"Miami",KB4JDE,communications_transponder,,http://www.poi-factory.com/node/2227,,,,Beach,,NFM,Public,AMATEUR,,,"offset=224.54MHz"
WA4LWN,-80.13,25.79,"Miami",WA4LWN,communications_transponder,,http://www.poi-factory.com/node/2227,,,,Beach,,NFM,Public,AMATEUR,,,"offset=224.74MHz"
N4WWM,-80.14,26.16,"Wilton",N4WWM,communications_transponder,,http://www.poi-factory.com/node/2227,,,,Manors,103.5,NFM,Public,AMATEUR,,,"offset=224.8MHz"
KE4FG,-80.14,26.12,"Ft",KE4FG,communications_transponder,,http://www.poi-factory.com/node/2227,,,,Lauderdale,,NFM,Public,AMATEUR,,,"offset=224.92MHz"
KB4JDE,-80.14,25.97,"Adventura",KB4JDE,communications_transponder,,http://www.poi-factory.com/node/2227,,,,224.6,,NFM,Public,AMATEUR,,,"offset=-"
KB4VFD,-80.15,33.33,"Cross",KB4VFD,communications_transponder,,http://www.poi-factory.com/node/2227,,,,224.58,,NFM,Public,AMATEUR,,,"offset=-"
WD4KYW,-80.15,26.01,"Hollywood",WD4KYW,communications_transponder,,http://www.poi-factory.com/node/2227,,,,224.22,,NFM,Public,AMATEUR,,,"offset=-"
KC4QLV,-80.19,25.77,"Miami",KC4QLV,communications_transponder,,http://www.poi-factory.com/node/2227,,,,223.92,,NFM,Public,AMATEUR,,,"offset=-"
AE4EQ,-80.19,25.77,"Miami",AE4EQ,communications_transponder,,http://www.poi-factory.com/node/2227,,,,224,110.9,NFM,Public,AMATEUR,,,"offset=-"
KC4MND,-80.19,25.77,"Miami",KC4MND,communications_transponder,,http://www.poi-factory.com/node/2227,,,,224.1,,NFM,Public,AMATEUR,,,"offset=-"
W4CSO,-80.19,25.77,"Miami",W4CSO,communications_transponder,,http://www.poi-factory.com/node/2227,,,,224.26,,NFM,Public,AMATEUR,,,"offset=-"
W4HN,-80.19,25.77,"Miami",W4HN,communications_transponder,,http://www.poi-factory.com/node/2227,,,,224.5,110.9,NFM,Public,AMATEUR,,,"offset=-"
WB4ESB,-80.19,25.77,"Miami",WB4ESB,communications_transponder,,http://www.poi-factory.com/node/2227,,,,224.66,,NFM,Public,AMATEUR,,,"offset=-"
KC4MVR,-80.19,25.77,"Miami",KC4MVR,communications_transponder,,http://www.poi-factory.com/node/2227,,,,224.78,,NFM,Public,AMATEUR,,,"offset=-"
KC4BOB,-80.19,25.77,"Miami",KC4BOB,communications_transponder,,http://www.poi-factory.com/node/2227,,,,224.84,,NFM,Public,AMATEUR,,,"offset=-"
WD4RXD,-80.19,25.77,"Miami",WD4RXD,communications_transponder,,http://www.poi-factory.com/node/2227,,,,224.98,,NFM,Public,AMATEUR,,,"offset=-"
WG8S,-80.2,36.64,"Patrick",WG8S,communications_transponder,,http://www.poi-factory.com/node/2227,,,,Springs,103.5,NFM,Public,AMATEUR,,,"offset=224.42MHz"
KC8LRN,-80.21,38.14,"Hillsboro",KC8LRN,communications_transponder,,http://www.poi-factory.com/node/2227,,,,224.22,91.5,NFM,Public,AMATEUR,,,"offset=-"
W4AB,-80.23,26.13,"Plantation",W4AB,communications_transponder,,http://www.poi-factory.com/node/2227,,,,224.76,,NFM,Public,AMATEUR,,,"offset=-"
N3TN,-80.25,40.69,"Freedom",N3TN,communications_transponder,,http://www.poi-factory.com/node/2227,,,,224.46,,NFM,Public,AMATEUR,,,"offset=-"
W3IXR,-80.25,40.69,"Freedom",W3IXR,communications_transponder,,http://www.poi-factory.com/node/2227,,,,224.56,,NFM,Public,AMATEUR,,,"offset=-"
W3CYO,-80.25,40.17,"Washington",W3CYO,communications_transponder,,http://www.poi-factory.com/node/2227,,,,224.4,,NFM,Public,AMATEUR,,,"offset=-"
K4NOC,-80.25,34.22,"Bishopville",K4NOC,communications_transponder,,http://www.poi-factory.com/node/2227,,,,224.86,,NFM,Public,AMATEUR,,,"offset=-"
WB4WIP,-80.25,25.94,"Carol",WB4WIP,communications_transponder,,http://www.poi-factory.com/node/2227,,,,City,,NFM,Public,AMATEUR,,,"offset=224.86MHz"
KD4BBM,-80.27,25.72,"Coral",KD4BBM,communications_transponder,,http://www.poi-factory.com/node/2227,,,,Gables,,NFM,Public,AMATEUR,,,"offset=224.36MHz"
WB4IVM,-80.28,25.86,"Hialeah",WB4IVM,communications_transponder,,http://www.poi-factory.com/node/2227,,,,223.94,,NFM,Public,AMATEUR,,,"offset=-"
WB4IVM,-80.28,25.86,"Hialeah",WB4IVM,communications_transponder,,http://www.poi-factory.com/node/2227,,,,224.06,,NFM,Public,AMATEUR,,,"offset=-"
WB4IVM,-80.28,25.86,"Hialeah",WB4IVM,communications_transponder,,http://www.poi-factory.com/node/2227,,,,224.58,,NFM,Public,AMATEUR,,,"offset=-"
N3XKA,-80.29,40.86,"Ellwood",N3XKA,communications_transponder,,http://www.poi-factory.com/node/2227,,,,City,,NFM,Public,AMATEUR,,,"offset=224.36MHz"
N3TN,-80.3,40.7,"Beaver",N3TN,communications_transponder,,http://www.poi-factory.com/node/2227,,,,224.88,,NFM,Public,AMATEUR,,,"offset=-"
N3ALL,-80.31,40.73,"New",N3ALL,communications_transponder,,http://www.poi-factory.com/node/2227,,,,Brighton,,NFM,Public,AMATEUR,,,"offset=224.72MHz"
KB4JDE,-80.32,25.68,"Kendall",KB4JDE,communications_transponder,,http://www.poi-factory.com/node/2227,,,,224.02,,NFM,Public,AMATEUR,,,"offset=-"
KG4DKG,-80.32,25.68,"Kendall",KG4DKG,communications_transponder,,http://www.poi-factory.com/node/2227,,,,224.72,,NFM,Public,AMATEUR,,,"offset=-"
W4GL,-80.34,33.92,"Sumter",W4GL,communications_transponder,,http://www.poi-factory.com/node/2227,,,,224.12,,NFM,Public,AMATEUR,,,"offset=-"
KA3UEX,-80.35,41,"New",KA3UEX,communications_transponder,,http://www.poi-factory.com/node/2227,,,,Castle,,NFM,Public,AMATEUR,,,"offset=224.04MHz"
NO3I,-80.35,41,"New",NO3I,communications_transponder,,http://www.poi-factory.com/node/2227,,,,Castle,,NFM,Public,AMATEUR,,,"offset=224.8MHz"
WA3USH,-80.37,41.89,"Albion",WA3USH,communications_transponder,,http://www.poi-factory.com/node/2227,,,,223.94,,NFM,Public,AMATEUR,,,"offset=-"
WB9SZL,-80.38,36.02,"Clemmons",WB9SZL,communications_transponder,,http://www.poi-factory.com/node/2227,,,,224.7,100,NFM,Public,AMATEUR,,,"offset=-"
KC4FWC,-80.43,35.26,"Locust",KC4FWC,communications_transponder,,http://www.poi-factory.com/node/2227,,,,224.48,,NFM,Public,AMATEUR,,,"offset=-"
N8FWL,-80.44,37.8,"Lewisburg",N8FWL,communications_transponder,,http://www.poi-factory.com/node/2227,,,,224.14,123,NFM,Public,AMATEUR,,,"offset=-"
KC8LRN,-80.44,37.8,"Lewisburg",KC8LRN,communications_transponder,,http://www.poi-factory.com/node/2227,,,,224.8,131.8,NFM,Public,AMATEUR,,,"offset=-"
W4EXU,-80.47,35.67,"Salisbury",W4EXU,communications_transponder,,http://www.poi-factory.com/node/2227,,,,224.76,,NFM,Public,AMATEUR,,,"offset=-"
KC8LRN,-80.65,38.33,"Craigsville",KC8LRN,communications_transponder,,http://www.poi-factory.com/node/2227,,,,224.48,91.5,NFM,Public,AMATEUR,,,"offset=-"
K4DQ,-80.69,36.67,"Fancy",K4DQ,communications_transponder,,http://www.poi-factory.com/node/2227,,,,Gap,100,NFM,Public,AMATEUR,,,"offset=224.88MHz"
W8COX,-80.71,38.66,"Sutton",W8COX,communications_transponder,,http://www.poi-factory.com/node/2227,,,,224.4,123,NFM,Public,AMATEUR,,,"offset=-"
KQ4Q,-80.74,37.33,"Pearisburg",KQ4Q,communications_transponder,,http://www.poi-factory.com/node/2227,,,,224.86,107.2,NFM,Public,AMATEUR,,,"offset=-"
N4LEM,-80.74,28.39,"Cocoa",N4LEM,communications_transponder,,http://www.poi-factory.com/node/2227,,,,224.5,,NFM,Public,AMATEUR,,,"offset=-"
KC8WY,-80.76,41.02,"Canfield",KC8WY,communications_transponder,,http://www.poi-factory.com/node/2227,,,,224.42,131.8,NFM,Public,AMATEUR,,,"offset=-"
KF4EA,-80.83,27.24,"Okeechobee",KF4EA,communications_transponder,,http://www.poi-factory.com/node/2227,,,,224.1,,NFM,Public,AMATEUR,,,"offset=-"
W4BFB,-80.84,35.23,"Charlotte",W4BFB,communications_transponder,,http://www.poi-factory.com/node/2227,,,,224.4,,NFM,Public,AMATEUR,,,"offset=-"
K8PEX,-80.85,41.77,"Austinburg",K8PEX,communications_transponder,,http://www.poi-factory.com/node/2227,,,,224.62,,NFM,Public,AMATEUR,,,"offset=-"
N7GZT,-80.86,33.49,"Orangeburg",N7GZT,communications_transponder,,http://www.poi-factory.com/node/2227,,,,224.18,,NFM,Public,AMATEUR,,,"offset=-"
KO4BR,-80.86,33.49,"Orangeburg",KO4BR,communications_transponder,,http://www.poi-factory.com/node/2227,,,,224.78,,NFM,Public,AMATEUR,,,"offset=-"
N8FWL,-80.89,37.67,"Hinton",N8FWL,communications_transponder,,http://www.poi-factory.com/node/2227,,,,224.64,123,NFM,Public,AMATEUR,,,"offset=-"
WA4WRS,-80.9,35.72,"Barium",WA4WRS,communications_transponder,,http://www.poi-factory.com/node/2227,,,,Springs,,NFM,Public,AMATEUR,,,"offset=224.3MHz"
W4VFR,-80.91,34.03,"Sumter/Shaw",W4VFR,communications_transponder,,http://www.poi-factory.com/node/2227,,,,224.66,,NFM,Public,AMATEUR,,,"offset=-"
N8WPZ,-80.95,41.8,"Geneva",N8WPZ,communications_transponder,,http://www.poi-factory.com/node/2227,,,,223.96,146.2,NFM,Public,AMATEUR,,,"offset=-"
N7GZT,-81.04,34,"Columbia",N7GZT,communications_transponder,,http://www.poi-factory.com/node/2227,,,,224.64,,NFM,Public,AMATEUR,,,"offset=-"
N4EOY,-81.04,34,"Columbia",N4EOY,communications_transponder,,http://www.poi-factory.com/node/2227,,,,224.9,,NFM,Public,AMATEUR,,,"offset=-"
K4YW,-81.08,36.95,"Wytheville",K4YW,communications_transponder,,http://www.poi-factory.com/node/2227,,,,224.56,77,NFM,Public,AMATEUR,,,"offset=-"
W8SSB,-81.09,40.57,"Carrollton",W8SSB,communications_transponder,,http://www.poi-factory.com/node/2227,,,,223.8,,NFM,Public,AMATEUR,,,"offset=-"
NC8W,-81.09,40.57,"Carrollton",NC8W,communications_transponder,,http://www.poi-factory.com/node/2227,,,,224.52,,NFM,Public,AMATEUR,,,"offset=-"
WV8B,-81.11,37.59,"FlatTop",WV8B,communications_transponder,,http://www.poi-factory.com/node/2227,,,,224.12,100,NFM,Public,AMATEUR,,,"offset=-"
W8GOH,-81.16,41.02,"Atwater",W8GOH,communications_transponder,,http://www.poi-factory.com/node/2227,,,,224.14,,NFM,Public,AMATEUR,,,"offset=-"
N8FWL,-81.19,37.78,"Beckley",N8FWL,communications_transponder,,http://www.poi-factory.com/node/2227,,,,224.24,123,NFM,Public,AMATEUR,,,"offset=-"
N8FWL,-81.19,37.78,"Beckley",N8FWL,communications_transponder,,http://www.poi-factory.com/node/2227,,,,224.34,123,NFM,Public,AMATEUR,,,"offset=-"
N8FWL,-81.19,37.78,"Beckley",N8FWL,communications_transponder,,http://www.poi-factory.com/node/2227,,,,224.54,123,NFM,Public,AMATEUR,,,"offset=-"
W3VLG,-81.19,37.78,"Beckley",W3VLG,communications_transponder,,http://www.poi-factory.com/node/2227,,,,224.7,,NFM,Public,AMATEUR,,,"offset=-"
KC4IRA,-81.19,35.26,"Gastonia",KC4IRA,communications_transponder,,http://www.poi-factory.com/node/2227,,,,224.62,127.3,NFM,Public,AMATEUR,,,"offset=-"
KB8FKM,-81.22,41.67,"Concord",KB8FKM,communications_transponder,,http://www.poi-factory.com/node/2227,,,,224.96,141.3,NFM,Public,AMATEUR,,,"offset=-"
N8QXG,-81.23,41.28,"Mantua",N8QXG,communications_transponder,,http://www.poi-factory.com/node/2227,,,,224.28,,NFM,Public,AMATEUR,,,"offset=-"
N8BC,-81.25,41.72,"Painesville",N8BC,communications_transponder,,http://www.poi-factory.com/node/2227,,,,224.5,141.3,NFM,Public,AMATEUR,,,"offset=-"
N8JCV,-81.27,41.75,"Fairport",N8JCV,communications_transponder,,http://www.poi-factory.com/node/2227,,,,Hrbr,141.3,NFM,Public,AMATEUR,,,"offset=224.08MHz"
N8FWL,-81.27,37.25,"Bluefield",N8FWL,communications_transponder,,http://www.poi-factory.com/node/2227,,,,224.44,123,NFM,Public,AMATEUR,,,"offset=-"
WA8O,-81.27,37.25,"Bluefield",WA8O,communications_transponder,,http://www.poi-factory.com/node/2227,,,,224.92,,NFM,Public,AMATEUR,,,"offset=-"
KE8MR,-81.3,29.03,"DeLand",KE8MR,communications_transponder,,http://www.poi-factory.com/node/2227,,,,224,,NFM,Public,AMATEUR,,,"offset=-"
WA4JNG,-81.34,28.6,"Winter",WA4JNG,communications_transponder,,http://www.poi-factory.com/node/2227,,,,Park,,NFM,Public,AMATEUR,,,"offset=224.2MHz"
N8BHU,-81.36,41.15,"Kent",N8BHU,communications_transponder,,http://www.poi-factory.com/node/2227,,,,224.02,141.3,NFM,Public,AMATEUR,,,"offset=-"
KE4GZV,-81.36,27.29,"Lake",KE4GZV,communications_transponder,,http://www.poi-factory.com/node/2227,,,,Placid,,NFM,Public,AMATEUR,,,"offset=224.64MHz"
WA4JNG,-81.37,28.66,"Altamonte",WA4JNG,communications_transponder,,http://www.poi-factory.com/node/2227,,,,Springs,,NFM,Public,AMATEUR,,,"offset=224.46MHz"
W8TUY,-81.38,40.8,"Canton",W8TUY,communications_transponder,,http://www.poi-factory.com/node/2227,,,,224.6,,NFM,Public,AMATEUR,,,"offset=-"
KB8LWP,-81.38,40.8,"Canton",KB8LWP,communications_transponder,,http://www.poi-factory.com/node/2227,,,,224.78,,NFM,Public,AMATEUR,,,"offset=-"
N4DWP,-81.38,35.38,"Cherryville",N4DWP,communications_transponder,,http://www.poi-factory.com/node/2227,,,,224.96,,NFM,Public,AMATEUR,,,"offset=-"
N8FNF,-81.44,41.24,"Hudson",N8FNF,communications_transponder,,http://www.poi-factory.com/node/2227,,,,224.64,,NFM,Public,AMATEUR,,,"offset=-"
W4JWD,-81.47,36.42,"Jefferson",W4JWD,communications_transponder,,http://www.poi-factory.com/node/2227,,,,224.22,88.5,NFM,Public,AMATEUR,,,"offset=-"
N5CWH,-81.51,33.92,"Leesville",N5CWH,communications_transponder,,http://www.poi-factory.com/node/2227,,,,224.56,162.2,NFM,Public,AMATEUR,,,"offset=-"
WB8CXO,-81.52,41.08,"Akron",WB8CXO,communications_transponder,,http://www.poi-factory.com/node/2227,,,,223.94,,NFM,Public,AMATEUR,,,"offset=-"
WA8DBW,-81.52,41.08,"Akron",WA8DBW,communications_transponder,,http://www.poi-factory.com/node/2227,,,,224.32,,NFM,Public,AMATEUR,,,"offset=-"
K8ZFR,-81.54,41.47,"Shaker",K8ZFR,communications_transponder,,http://www.poi-factory.com/node/2227,,,,Hts,,NFM,Public,AMATEUR,,,"offset=223.92MHz"
KN4K,-81.54,35.91,"Lenoir",KN4K,communications_transponder,,http://www.poi-factory.com/node/2227,,,,224.16,,NFM,Public,AMATEUR,,,"offset=-"
W4NYR,-81.54,35.29,"Shelby",W4NYR,communications_transponder,,http://www.poi-factory.com/node/2227,,,,224.06,,NFM,Public,AMATEUR,,,"offset=-"
N4DWP,-81.54,35.29,"Shelby",N4DWP,communications_transponder,,http://www.poi-factory.com/node/2227,,,,224.46,,NFM,Public,AMATEUR,,,"offset=-"
KA8WDX,-81.56,41.37,"Walton",KA8WDX,communications_transponder,,http://www.poi-factory.com/node/2227,,,,Hills,141.3,NFM,Public,AMATEUR,,,"offset=224.1MHz"
KA8NTV,-81.57,41.42,"Maple",KA8NTV,communications_transponder,,http://www.poi-factory.com/node/2227,,,,Heights,,NFM,Public,AMATEUR,,,"offset=224.26MHz"
WB8YST,-81.63,38.35,"Charleston",WB8YST,communications_transponder,,http://www.poi-factory.com/node/2227,,,,224.36,107.2,NFM,Public,AMATEUR,,,"offset=-"
KG4JIA,-81.65,35.07,"Gaffney",KG4JIA,communications_transponder,,http://www.poi-factory.com/node/2227,,,,224.5,123,NFM,Public,AMATEUR,,,"offset=-"
KE4FZM,-81.66,30.33,"Jacksonville",KE4FZM,communications_transponder,,http://www.poi-factory.com/node/2227,,,,224.78,,NFM,Public,AMATEUR,,,"offset=-"
NS4R,-81.66,30.33,"Jacksonville",NS4R,communications_transponder,,http://www.poi-factory.com/node/2227,,,,224.94,103.5,NFM,Public,AMATEUR,,,"offset=-"
KA4OPN,-81.67,28.93,"Umatilla",KA4OPN,communications_transponder,,http://www.poi-factory.com/node/2227,,,,224.14,,NFM,Public,AMATEUR,,,"offset=-"
W8HAC,-81.7,41.5,"Cleveland",W8HAC,communications_transponder,,http://www.poi-factory.com/node/2227,,,,224,,NFM,Public,AMATEUR,,,"offset=-"
WB8CQR,-81.7,41.5,"Cleveland",WB8CQR,communications_transponder,,http://www.poi-factory.com/node/2227,,,,224.9,,NFM,Public,AMATEUR,,,"offset=-"
WX8CLE,-81.7,41.5,"Cleveland",WX8CLE,communications_transponder,,http://www.poi-factory.com/node/2227,,,,224.94,,NFM,Public,AMATEUR,,,"offset=-"
AB8Z,-81.72,41.4,"Parma",AB8Z,communications_transponder,,http://www.poi-factory.com/node/2227,,,,224.3,88.5,NFM,Public,AMATEUR,,,"offset=-"
KB8WLW,-81.72,41.4,"Parma",KB8WLW,communications_transponder,,http://www.poi-factory.com/node/2227,,,,224.48,131.8,NFM,Public,AMATEUR,,,"offset=-"
KE4WDP,-81.73,28.02,"Winter",KE4WDP,communications_transponder,,http://www.poi-factory.com/node/2227,,,,Haven,127.3,NFM,Public,AMATEUR,,,"offset=224.8MHz"
KA0OXH,-81.77,28.55,"Clermont",KA0OXH,communications_transponder,,http://www.poi-factory.com/node/2227,,,,223.94,,NFM,Public,AMATEUR,,,"offset=-"
KR4Q,-81.77,28.55,"Clermont",KR4Q,communications_transponder,,http://www.poi-factory.com/node/2227,,,,224.82,,NFM,Public,AMATEUR,,,"offset=-"
KN4CW,-81.78,34.77,"West",KN4CW,communications_transponder,,http://www.poi-factory.com/node/2227,,,,Springs,,NFM,Public,AMATEUR,,,"offset=224.44MHz"
K4DHT,-81.8,36.47,"Mountain",K4DHT,communications_transponder,,http://www.poi-factory.com/node/2227,,,,City,103.5,NFM,Public,AMATEUR,,,"offset=224.28MHz"
W8UQZ,-81.84,41.24,"Brunswick",W8UQZ,communications_transponder,,http://www.poi-factory.com/node/2227,,,,224.86,,NFM,Public,AMATEUR,,,"offset=-"
WA4NC,-81.87,36.16,"Banner",WA4NC,communications_transponder,,http://www.poi-factory.com/node/2227,,,,Elk,,NFM,Public,AMATEUR,,,"offset=224.84MHz"
WA4PIL,-81.87,26.64,"Ft",WA4PIL,communications_transponder,,http://www.poi-factory.com/node/2227,,,,Myers,136.5,NFM,Public,AMATEUR,,,"offset=224.52MHz"
WR8RA,-81.9,41.41,"Olmsted",WR8RA,communications_transponder,,http://www.poi-factory.com/node/2227,,,,223.98,,NFM,Public,AMATEUR,,,"offset=-"
NI4CE,-81.94,27.84,"Pebbledale",NI4CE,communications_transponder,,http://www.poi-factory.com/node/2227,,,,224.28,100,NFM,Public,AMATEUR,,,"offset=-"
WD8OHX,-81.96,38.75,"Leon",WD8OHX,communications_transponder,,http://www.poi-factory.com/node/2227,,,,223.78,,NFM,Public,AMATEUR,,,"offset=-"
WB4KXO,-81.97,33.47,"Augusta",WB4KXO,communications_transponder,,http://www.poi-factory.com/node/2227,,,,224.94,,NFM,Public,AMATEUR,,,"offset=-"
KJ8N,-82.01,39.94,"Zanesville",KJ8N,communications_transponder,,http://www.poi-factory.com/node/2227,,,,224.94,,NFM,Public,AMATEUR,,,"offset=-"
WR8M,-82.28,37.67,"Williamson",WR8M,communications_transponder,,http://www.poi-factory.com/node/2227,,,,224.14,,NFM,Public,AMATEUR,,,"offset=-"
WA4BVW,-82.29,35.91,"Mt",WA4BVW,communications_transponder,,http://www.poi-factory.com/node/2227,,,,Mitchell,,NFM,Public,AMATEUR,,,"offset=224.54MHz"
KD4WAR,-82.3,35.92,"Burnsville",KD4WAR,communications_transponder,,http://www.poi-factory.com/node/2227,,,,224.74,,NFM,Public,AMATEUR,,,"offset=-"
K4GNV,-82.32,29.65,"Gainesville",K4GNV,communications_transponder,,http://www.poi-factory.com/node/2227,,,,224.16,,NFM,Public,AMATEUR,,,"offset=-"
W4CBX,-82.33,36.53,"Blountville",W4CBX,communications_transponder,,http://www.poi-factory.com/node/2227,,,,224.2,,NFM,Public,AMATEUR,,,"offset=-"
W4ILY,-82.39,34.85,"Greenville",W4ILY,communications_transponder,,http://www.poi-factory.com/node/2227,,,,224.2,,NFM,Public,AMATEUR,,,"offset=-"
W4NYK,-82.39,34.85,"Greenville",W4NYK,communications_transponder,,http://www.poi-factory.com/node/2227,,,,224.92,88.5,NFM,Public,AMATEUR,,,"offset=-"
KA8PCP,-82.4,40.06,"Newark",KA8PCP,communications_transponder,,http://www.poi-factory.com/node/2227,,,,223.94,,NFM,Public,AMATEUR,,,"offset=-"
KB8FPK,-82.42,36.15,"Erwin",KB8FPK,communications_transponder,,http://www.poi-factory.com/node/2227,,,,224.18,88.5,NFM,Public,AMATEUR,,,"offset=-"
WA4KNI,-82.46,35.32,"Hendersonville",WA4KNI,communications_transponder,,http://www.poi-factory.com/node/2227,,,,224.24,,NFM,Public,AMATEUR,,,"offset=-"
N4UQS,-82.46,35.32,"Hendersonville",N4UQS,communications_transponder,,http://www.poi-factory.com/node/2227,,,,224.96,,NFM,Public,AMATEUR,,,"offset=-"
W4UEA,-82.46,29.05,"Dunnellon",W4UEA,communications_transponder,,http://www.poi-factory.com/node/2227,,,,224.92,,NFM,Public,AMATEUR,,,"offset=-"
N4TCP,-82.46,27.95,"Tampa",N4TCP,communications_transponder,,http://www.poi-factory.com/node/2227,,,,224.7,146.2,NFM,Public,AMATEUR,,,"offset=-"
WB4F,-82.52,37.48,"Pikeville",WB4F,communications_transponder,,http://www.poi-factory.com/node/2227,,,,224.58,,NFM,Public,AMATEUR,,,"offset=-"
KD4DAR,-82.52,37.48,"Pikeville",KD4DAR,communications_transponder,,http://www.poi-factory.com/node/2227,,,,224.62,,NFM,Public,AMATEUR,,,"offset=-"
KE4RQL,-82.55,35.83,"Mars",KE4RQL,communications_transponder,,http://www.poi-factory.com/node/2227,,,,Hill,100,NFM,Public,AMATEUR,,,"offset=224.66MHz"
KD4CJG,-82.55,35.6,"Asheville",KD4CJG,communications_transponder,,http://www.poi-factory.com/node/2227,,,,224.52,91.5,NFM,Public,AMATEUR,,,"offset=-"
WB4PLA,-82.55,35.6,"Asheville",WB4PLA,communications_transponder,,http://www.poi-factory.com/node/2227,,,,224.6,,NFM,Public,AMATEUR,,,"offset=-"
W8ZUA,-82.57,38.89,"Oak",W8ZUA,communications_transponder,,http://www.poi-factory.com/node/2227,,,,Hill,100,NFM,Public,AMATEUR,,,"offset=224.12MHz"
WR4AMS,-82.58,37.28,"Dorton",WR4AMS,communications_transponder,,http://www.poi-factory.com/node/2227,,,,224.52,,NFM,Public,AMATEUR,,,"offset=-"
WD4GSM,-82.63,36.93,"Norton",WD4GSM,communications_transponder,,http://www.poi-factory.com/node/2227,,,,224.42,,NFM,Public,AMATEUR,,,"offset=-"
KC4QK,-82.64,38.48,"Ashland",KC4QK,communications_transponder,,http://www.poi-factory.com/node/2227,,,,223.94,,NFM,Public,AMATEUR,,,"offset=-"
KJ4VF,-82.64,37.57,"Stanville",KJ4VF,communications_transponder,,http://www.poi-factory.com/node/2227,,,,224.68,100,NFM,Public,AMATEUR,,,"offset=-"
KF4ZDS,-82.68,35.8,"Marshall",KF4ZDS,communications_transponder,,http://www.poi-factory.com/node/2227,,,,224.36,,NFM,Public,AMATEUR,,,"offset=-"
N0RW,-82.68,27.77,"St",N0RW,communications_transponder,,http://www.poi-factory.com/node/2227,,,,Petersburg,,NFM,Public,AMATEUR,,,"offset=224.02MHz"
K4LK,-82.68,27.77,"St",K4LK,communications_transponder,,http://www.poi-factory.com/node/2227,,,,Petersburg,146.2,NFM,Public,AMATEUR,,,"offset=224.38MHz"
WA4AKH,-82.68,27.77,"St",WA4AKH,communications_transponder,,http://www.poi-factory.com/node/2227,,,,Petersburg,,NFM,Public,AMATEUR,,,"offset=224.66MHz"
W4ORM,-82.7,27.84,"Pinellas",W4ORM,communications_transponder,,http://www.poi-factory.com/node/2227,,,,Park,103.5,NFM,Public,AMATEUR,,,"offset=224.84MHz"
WB4QHF,-82.71,34.88,"Pickens",WB4QHF,communications_transponder,,http://www.poi-factory.com/node/2227,,,,224.14,131.8,NFM,Public,AMATEUR,,,"offset=-"
W4IT,-82.71,34.88,"Pickens",W4IT,communications_transponder,,http://www.poi-factory.com/node/2227,,,,224.32,,NFM,Public,AMATEUR,,,"offset=-"
WB4QHF,-82.71,34.88,"Pickens",WB4QHF,communications_transponder,,http://www.poi-factory.com/node/2227,,,,224.4,131.8,NFM,Public,AMATEUR,,,"offset=-"
WD8MVU,-82.72,28.27,"Port",WD8MVU,communications_transponder,,http://www.poi-factory.com/node/2227,,,,Richey,,NFM,Public,AMATEUR,,,"offset=224.86MHz"
WA4GDN,-82.72,28.24,"New",WA4GDN,communications_transponder,,http://www.poi-factory.com/node/2227,,,,Port,,NFM,Public,AMATEUR,,,"offset=none"
K8SCI,-82.77,39.73,"Royalton",K8SCI,communications_transponder,,http://www.poi-factory.com/node/2227,,,,224.76,,NFM,Public,AMATEUR,,,"offset=-"
WR4AMS,-82.77,37.67,"Prestonsburg",WR4AMS,communications_transponder,,http://www.poi-factory.com/node/2227,,,,224.72,,NFM,Public,AMATEUR,,,"offset=-"
KO4CR,-82.79,27.91,"Largo",KO4CR,communications_transponder,,http://www.poi-factory.com/node/2227,,,,224.22,,NFM,Public,AMATEUR,,,"offset=-"
KD8TE,-82.8,40.53,"Monfort",KD8TE,communications_transponder,,http://www.poi-factory.com/node/2227,,,,Hts,,NFM,Public,AMATEUR,,,"offset=224.24MHz"
W4ACS,-82.8,27.97,"Clearwater",W4ACS,communications_transponder,,http://www.poi-factory.com/node/2227,,,,224.12,156.7,NFM,Public,AMATEUR,,,"offset=-"
WB4BZF,-82.8,27.97,"Clearwater",WB4BZF,communications_transponder,,http://www.poi-factory.com/node/2227,,,,224.94,,NFM,Public,AMATEUR,,,"offset=-"
WB8BHK,-82.83,40.55,"Mt",WB8BHK,communications_transponder,,http://www.poi-factory.com/node/2227,,,,Gilead,,NFM,Public,AMATEUR,,,"offset=224.94MHz"
K4MFD,-82.83,36.16,"Greeneville",K4MFD,communications_transponder,,http://www.poi-factory.com/node/2227,,,,224.72,173.8,NFM,Public,AMATEUR,,,"offset=-"
W4WC,-82.83,36.16,"Greeneville",W4WC,communications_transponder,,http://www.poi-factory.com/node/2227,,,,224.9,100,NFM,Public,AMATEUR,,,"offset=-"
WB4NKM,-82.83,36.16,"Greeneville",WB4NKM,communications_transponder,,http://www.poi-factory.com/node/2227,,,,224.94,,NFM,Public,AMATEUR,,,"offset=-"
WB4NKM,-82.83,36.16,"Greeneville",WB4NKM,communications_transponder,,http://www.poi-factory.com/node/2227,,,,224.94,,NFM,Public,AMATEUR,,,"offset=-"
W4NHL,-82.83,27.83,"Redington",W4NHL,communications_transponder,,http://www.poi-factory.com/node/2227,,,,Shores,,NFM,Public,AMATEUR,,,"offset=224.44MHz"
N4DWU,-82.84,35.53,"Canton",N4DWU,communications_transponder,,http://www.poi-factory.com/node/2227,,,,224.82,,NFM,Public,AMATEUR,,,"offset=-"
K4TDO,-82.92,36.97,"Lynch",K4TDO,communications_transponder,,http://www.poi-factory.com/node/2227,,,,224.32,,NFM,Public,AMATEUR,,,"offset=-0.6MHz"
N8EDV,-82.94,42.5,"Roseville",N8EDV,communications_transponder,,http://www.poi-factory.com/node/2227,,,,224.46,,NFM,Public,AMATEUR,,,"offset=-"
K8DDG,-83,39.96,"Columbus",K8DDG,communications_transponder,,http://www.poi-factory.com/node/2227,,,,224.06,,NFM,Public,AMATEUR,,,"offset=-"
AA8EY,-83,39.96,"Columbus",AA8EY,communications_transponder,,http://www.poi-factory.com/node/2227,,,,224.46,,NFM,Public,AMATEUR,,,"offset=-"
W8RUT,-83,39.96,"Columbus",W8RUT,communications_transponder,,http://www.poi-factory.com/node/2227,,,,224.66,,NFM,Public,AMATEUR,,,"offset=-"
K8DRE,-83,39.96,"Columbus",K8DRE,communications_transponder,,http://www.poi-factory.com/node/2227,,,,224.84,179.9,NFM,Public,AMATEUR,,,"offset=-"
KD4HZN,-83.01,36.41,"Rogersville",KD4HZN,communications_transponder,,http://www.poi-factory.com/node/2227,,,,224.48,,NFM,Public,AMATEUR,,,"offset=-"
100,-83.14,42.49,"Royal",100,communications_transponder,,http://www.poi-factory.com/node/2227,,,,Oak,KA8ZRR,NFM,Public,AMATEUR,,,"offset=224.84MHz"
100,-83.18,42.32,"Dearborn",100,communications_transponder,,http://www.poi-factory.com/node/2227,,,,224.52,K8UTT,NFM,Public,AMATEUR,,,"offset=-"
WR4AMS,-83.19,37.25,"Hazard",WR4AMS,communications_transponder,,http://www.poi-factory.com/node/2227,,,,224.82,,NFM,Public,AMATEUR,,,"offset=-"
AC4JF,-83.19,35.97,"Newport",AC4JF,communications_transponder,,http://www.poi-factory.com/node/2227,,,,224.56,100,NFM,Public,AMATEUR,,,"offset=-"
WR4SG,-83.2,31.07,"RayCity",WR4SG,communications_transponder,,http://www.poi-factory.com/node/2227,,,,224.22,141.3,NFM,Public,AMATEUR,,,"offset=-"
WR4SG,-83.28,30.83,"Valdosta",WR4SG,communications_transponder,,http://www.poi-factory.com/node/2227,,,,224.46,141.3,NFM,Public,AMATEUR,,,"offset=-"
WD8INW,-83.29,42.64,"Pontiac",WD8INW,communications_transponder,,http://www.poi-factory.com/node/2227,,,,224.56,,NFM,Public,AMATEUR,,,"offset=-"
N4RBB,-83.29,36.21,"Morristown",N4RBB,communications_transponder,,http://www.poi-factory.com/node/2227,,,,224.4,,NFM,Public,AMATEUR,,,"offset=-"
KC4RGQ,-83.29,36.21,"Morristown",KC4RGQ,communications_transponder,,http://www.poi-factory.com/node/2227,,,,224.64,,NFM,Public,AMATEUR,,,"offset=-"
100,-83.31,42.29,"Inkster",100,communications_transponder,,http://www.poi-factory.com/node/2227,,,,224.58,N8WB,NFM,Public,AMATEUR,,,"offset=-"
W8LAP,-83.32,43.05,"Lapeer",W8LAP,communications_transponder,,http://www.poi-factory.com/node/2227,,,,224.88,,NFM,Public,AMATEUR,,,"offset=-"
107.2,-83.33,42.33,"Garden",107.2,communications_transponder,,http://www.poi-factory.com/node/2227,,,,City,KK8GC,NFM,Public,AMATEUR,,,"offset=224.8MHz"
K4SWS,-83.39,33.33,"Eatonton",K4SWS,communications_transponder,,http://www.poi-factory.com/node/2227,,,,224.1,179.9,NFM,Public,AMATEUR,,,"offset=-"
110.9,-83.4,42.32,"Westland",110.9,communications_transponder,,http://www.poi-factory.com/node/2227,,,,224.12,N8TUO,NFM,Public,AMATEUR,,,"offset=-"
186.2,-83.4,42.32,"Westland",186.2,communications_transponder,,http://www.poi-factory.com/node/2227,,,,224.68,W8ICN,NFM,Public,AMATEUR,,,"offset=-"
W4UWH,-83.4,34.88,"Clayton",W4UWH,communications_transponder,,http://www.poi-factory.com/node/2227,,,,224.72,,NFM,Public,AMATEUR,,,"offset=-"
KD4AOZ,-83.41,33.86,"Watkinsville",KD4AOZ,communications_transponder,,http://www.poi-factory.com/node/2227,,,,224.42,123,NFM,Public,AMATEUR,,,"offset=-"
67,-83.42,42.74,"Clarkston",67,communications_transponder,,http://www.poi-factory.com/node/2227,,,,224.08,N8BIT,NFM,Public,AMATEUR,,,"offset=-"
100,-83.43,45.06,"Alpena",100,communications_transponder,,http://www.poi-factory.com/node/2227,,,,224.08,N8BIT,NFM,Public,AMATEUR,,,"offset=-"
KJ4VF,-83.43,38.18,"Morehead",KJ4VF,communications_transponder,,http://www.poi-factory.com/node/2227,,,,224.76,100,NFM,Public,AMATEUR,,,"offset=-"
KC4JNN,-83.43,32.67,"Biskey",KC4JNN,communications_transponder,,http://www.poi-factory.com/node/2227,,,,Mtn,100,NFM,Public,AMATEUR,,,"offset=224.16MHz"
KC4OVY,-83.43,32.67,"Atlanta-ne",KC4OVY,communications_transponder,,http://www.poi-factory.com/node/2227,,,,224.2,100,NFM,Public,AMATEUR,,,"offset=-"
K4AIS,-83.43,32.67,"Pine",K4AIS,communications_transponder,,http://www.poi-factory.com/node/2227,,,,Log,,NFM,Public,AMATEUR,,,"offset=none"
W4PME,-83.43,32.67,"Atlanta/Bell",W4PME,communications_transponder,,http://www.poi-factory.com/node/2227,,,,224.62,100,NFM,Public,AMATEUR,,,"offset=-"
WR4MG,-83.47,32.28,"Hawkinsville",WR4MG,communications_transponder,,http://www.poi-factory.com/node/2227,,,,224.82,107.2,NFM,Public,AMATEUR,,,"offset=-"
100,-83.48,42.43,"Northville",100,communications_transponder,,http://www.poi-factory.com/node/2227,,,,224.94,W8NJH,NFM,Public,AMATEUR,,,"offset=-"
100,-83.49,42.31,"Canton",100,communications_transponder,,http://www.poi-factory.com/node/2227,,,,224.74,W8PMN,NFM,Public,AMATEUR,,,"offset=-"
WJ8E,-83.49,41.64,"Oregon",WJ8E,communications_transponder,,http://www.poi-factory.com/node/2227,,,,224.44,103.5,NFM,Public,AMATEUR,,,"offset=-"
KE4FH,-83.49,36.12,"Jefferson",KE4FH,communications_transponder,,http://www.poi-factory.com/node/2227,,,,City,,NFM,Public,AMATEUR,,,"offset=224.78MHz"
W4UWH,-83.51,35.71,"Gatlinburg",W4UWH,communications_transponder,,http://www.poi-factory.com/node/2227,,,,224.62,,NFM,Public,AMATEUR,,,"offset=-"
W8HHF,-83.56,41.66,"Toledo",W8HHF,communications_transponder,,http://www.poi-factory.com/node/2227,,,,224.14,123,NFM,Public,AMATEUR,,,"offset=-"
N2FUV,-83.56,35.87,"Sevierville",N2FUV,communications_transponder,,http://www.poi-factory.com/node/2227,,,,224.44,,NFM,Public,AMATEUR,,,"offset=-"
K4IBW,-83.56,35.87,"Sevierville",K4IBW,communications_transponder,,http://www.poi-factory.com/node/2227,,,,224.7,100,NFM,Public,AMATEUR,,,"offset=-"
K4IBW,-83.56,35.87,"Sevierville",K4IBW,communications_transponder,,http://www.poi-factory.com/node/2227,,,,224.8,,NFM,Public,AMATEUR,,,"offset=-"
WR4MG,-83.6,32.62,"Warner",WR4MG,communications_transponder,,http://www.poi-factory.com/node/2227,,,,Robins,,NFM,Public,AMATEUR,,,"offset=224.84MHz"
KB8YVY,-83.63,41.56,"Perrysburg",KB8YVY,communications_transponder,,http://www.poi-factory.com/node/2227,,,,224.28,,NFM,Public,AMATEUR,,,"offset=-"
WB8UCD,-83.63,40.17,"Cable",WB8UCD,communications_transponder,,http://www.poi-factory.com/node/2227,,,,224.86,131.8,NFM,Public,AMATEUR,,,"offset=-"
88.5,-83.69,43.01,"Flint",88.5,communications_transponder,,http://www.poi-factory.com/node/2227,,,,224.18,KF8UI,NFM,Public,AMATEUR,,,"offset=-"
100,-83.69,43.01,"Flint",100,communications_transponder,,http://www.poi-factory.com/node/2227,,,,224.48,KC8KGZ,NFM,Public,AMATEUR,,,"offset=-"
WM4MD,-83.72,36.61,"Middlesboro",WM4MD,communications_transponder,,http://www.poi-factory.com/node/2227,,,,224.12,82.5,NFM,Public,AMATEUR,,,"offset=-"
W8UHW,-83.73,42.27,"Ann",W8UHW,communications_transponder,,http://www.poi-factory.com/node/2227,,,,Arbor,,NFM,Public,AMATEUR,,,"offset=224.34MHz"
W8PGW,-83.73,42.27,"Ann",W8PGW,communications_transponder,,http://www.poi-factory.com/node/2227,,,,Arbor,,NFM,Public,AMATEUR,,,"offset=224.38MHz"
K8RPT,-83.73,42.27,"Ann",K8RPT,communications_transponder,,http://www.poi-factory.com/node/2227,,,,Arbor,,NFM,Public,AMATEUR,,,"offset=224.78MHz"
KB7TSE,-83.75,40.11,"Urbana",KB7TSE,communications_transponder,,http://www.poi-factory.com/node/2227,,,,224.98,100,NFM,Public,AMATEUR,,,"offset=-"
KA8GRP,-83.76,40.36,"Bellefontaine",KA8GRP,communications_transponder,,http://www.poi-factory.com/node/2227,,,,224.5,,NFM,Public,AMATEUR,,,"offset=-"
N4GSM,-83.81,35.32,"Robbinsville",N4GSM,communications_transponder,,http://www.poi-factory.com/node/2227,,,,223.94,,NFM,Public,AMATEUR,,,"offset=-"
W4TL,-83.82,34.3,"Gainesville",W4TL,communications_transponder,,http://www.poi-factory.com/node/2227,,,,224.84,203.5,NFM,Public,AMATEUR,,,"offset=-"
NP2Y,-83.85,34.93,"Young",NP2Y,communications_transponder,,http://www.poi-factory.com/node/2227,,,,Harris,100,NFM,Public,AMATEUR,,,"offset=224.66MHz"
K4XYZ,-83.89,37.09,"Buck",K4XYZ,communications_transponder,,http://www.poi-factory.com/node/2227,,,,Horn,103.5,NFM,Public,AMATEUR,,,"offset=none"
W8UJM,-83.92,39.03,"Mt",W8UJM,communications_transponder,,http://www.poi-factory.com/node/2227,,,,Orab,,NFM,Public,AMATEUR,,,"offset=224.18MHz"
KB4FZK,-83.92,35.96,"Knoxville",KB4FZK,communications_transponder,,http://www.poi-factory.com/node/2227,,,,224.22,100,NFM,Public,AMATEUR,,,"offset=-"
WB4GBI,-83.92,35.96,"Knoxville",WB4GBI,communications_transponder,,http://www.poi-factory.com/node/2227,,,,224.34,,NFM,Public,AMATEUR,,,"offset=-"
N4OQJ,-83.92,35.96,"Knoxville",N4OQJ,communications_transponder,,http://www.poi-factory.com/node/2227,,,,224.38,100,NFM,Public,AMATEUR,,,"offset=-"
W4BBB,-83.92,35.96,"Knoxville",W4BBB,communications_transponder,,http://www.poi-factory.com/node/2227,,,,224.5,100,NFM,Public,AMATEUR,,,"offset=-"
N4KFI,-83.92,35.96,"Knoxville",N4KFI,communications_transponder,,http://www.poi-factory.com/node/2227,,,,224.58,103.5,NFM,Public,AMATEUR,,,"offset=-"
K4PCK,-83.92,35.96,"Knoxville",K4PCK,communications_transponder,,http://www.poi-factory.com/node/2227,,,,224.76,,NFM,Public,AMATEUR,,,"offset=-"
KD4CWB,-83.92,35.96,"Knoxville",KD4CWB,communications_transponder,,http://www.poi-factory.com/node/2227,,,,224.86,100,NFM,Public,AMATEUR,,,"offset=-"
K8DAC,-83.95,43.42,"Saginaw",K8DAC,communications_transponder,,http://www.poi-factory.com/node/2227,,,,224.28,,NFM,Public,AMATEUR,,,"offset=-"
WB8UCD,-83.96,40.13,"St",WB8UCD,communications_transponder,,http://www.poi-factory.com/node/2227,,,,Paris,,NFM,Public,AMATEUR,,,"offset=224.6MHz"
AD4RT,-83.97,37.7,"Irvine",AD4RT,communications_transponder,,http://www.poi-factory.com/node/2227,,,,224.94,,NFM,Public,AMATEUR,,,"offset=-"
100,-83.98,42.91,"Durand",100,communications_transponder,,http://www.poi-factory.com/node/2227,,,,224.86,N8IES,NFM,Public,AMATEUR,,,"offset=-"
N4RBT,-83.99,34.53,"Dahlonega",N4RBT,communications_transponder,,http://www.poi-factory.com/node/2227,,,,224.38,100,NFM,Public,AMATEUR,,,"offset=-"
WD8IEL,-84.02,42.32,"Chelsea",WD8IEL,communications_transponder,,http://www.poi-factory.com/node/2227,,,,224.16,,NFM,Public,AMATEUR,,,"offset=-"
W4CSX,-84.02,33.86,"Snellville",W4CSX,communications_transponder,,http://www.poi-factory.com/node/2227,,,,224.92,100,NFM,Public,AMATEUR,,,"offset=-"
WB4JEH,-84.02,33.67,"Conyers",WB4JEH,communications_transponder,,http://www.poi-factory.com/node/2227,,,,224.02,,NFM,Public,AMATEUR,,,"offset=-"
WR4AMS,-84.08,37.13,"London",WR4AMS,communications_transponder,,http://www.poi-factory.com/node/2227,,,,224.98,,NFM,Public,AMATEUR,,,"offset=-"
WB8PJZ,-84.1,40.74,"Lima",WB8PJZ,communications_transponder,,http://www.poi-factory.com/node/2227,,,,224.9,,NFM,Public,AMATEUR,,,"offset=-"
NO8I,-84.12,39.84,"Huber",NO8I,communications_transponder,,http://www.poi-factory.com/node/2227,,,,Heights,,NFM,Public,AMATEUR,,,"offset=224.3MHz"
KA4OAK,-84.12,36.38,"Lafollette",KA4OAK,communications_transponder,,http://www.poi-factory.com/node/2227,,,,224.28,,NFM,Public,AMATEUR,,,"offset=-"
WB8WIQ,-84.17,39.96,"Tipp",WB8WIQ,communications_transponder,,http://www.poi-factory.com/node/2227,,,,City,,NFM,Public,AMATEUR,,,"offset=224.42MHz"
KA8PGJ,-84.17,39.69,"Kettering",KA8PGJ,communications_transponder,,http://www.poi-factory.com/node/2227,,,,224.76,100,NFM,Public,AMATEUR,,,"offset=-"
WB8TMR,-84.18,39.53,"Ridgeville",WB8TMR,communications_transponder,,http://www.poi-factory.com/node/2227,,,,224.7,,NFM,Public,AMATEUR,,,"offset=-"
W8BI,-84.19,39.76,"Dayton",W8BI,communications_transponder,,http://www.poi-factory.com/node/2227,,,,223.94,,NFM,Public,AMATEUR,,,"offset=-"
WB8SMC,-84.19,39.76,"Dayton",WB8SMC,communications_transponder,,http://www.poi-factory.com/node/2227,,,,224.02,,NFM,Public,AMATEUR,,,"offset=-"
WC8OH,-84.19,39.76,"Dayton",WC8OH,communications_transponder,,http://www.poi-factory.com/node/2227,,,,224.16,,NFM,Public,AMATEUR,,,"offset=-"
KB8CSL,-84.19,39.76,"Dayton",KB8CSL,communications_transponder,,http://www.poi-factory.com/node/2227,,,,224.68,,NFM,Public,AMATEUR,,,"offset=-"
KC8NDF,-84.19,39.76,"Dayton",KC8NDF,communications_transponder,,http://www.poi-factory.com/node/2227,,,,224.8,,NFM,Public,AMATEUR,,,"offset=-"
WB8PMG,-84.2,40.04,"Troy",WB8PMG,communications_transponder,,http://www.poi-factory.com/node/2227,,,,224.94,,NFM,Public,AMATEUR,,,"offset=-"
WD8KMX,-84.2,39.44,"Lebanon",WD8KMX,communications_transponder,,http://www.poi-factory.com/node/2227,,,,224.08,,NFM,Public,AMATEUR,,,"offset=-"
W8CYE,-84.23,39.55,"Springboro",W8CYE,communications_transponder,,http://www.poi-factory.com/node/2227,,,,224.56,77,NFM,Public,AMATEUR,,,"offset=-"
W8COH,-84.28,39.64,"Miamisburg",W8COH,communications_transponder,,http://www.poi-factory.com/node/2227,,,,223.9,,NFM,Public,AMATEUR,,,"offset=-"
NX9O,-84.29,34.08,"Alpharetta",NX9O,communications_transponder,,http://www.poi-factory.com/node/2227,,,,224.58,100,NFM,Public,AMATEUR,,,"offset=-"
KC4JNN,-84.29,34.08,"Alpharetta",KC4JNN,communications_transponder,,http://www.poi-factory.com/node/2227,,,,224.86,100,NFM,Public,AMATEUR,,,"offset=-"
W4BOC,-84.29,33.77,"Decatur",W4BOC,communications_transponder,,http://www.poi-factory.com/node/2227,,,,224.76,,NFM,Public,AMATEUR,,,"offset=-"
N8SCY,-84.31,44.89,"Lewiston",N8SCY,communications_transponder,,http://www.poi-factory.com/node/2227,,,,224.42,,NFM,Public,AMATEUR,,,"offset=-"
W8KEL,-84.31,39.8,"Trotwood",W8KEL,communications_transponder,,http://www.poi-factory.com/node/2227,,,,224.2,,NFM,Public,AMATEUR,,,"offset=-"
KJ8R,-84.31,39.8,"Trotwood",KJ8R,communications_transponder,,http://www.poi-factory.com/node/2227,,,,224.72,,NFM,Public,AMATEUR,,,"offset=-"
WD8KMX,-84.31,39.36,"Mason",WD8KMX,communications_transponder,,http://www.poi-factory.com/node/2227,,,,224.4,127.3,NFM,Public,AMATEUR,,,"offset=-"
N4MNA,-84.33,33.64,"Conley",N4MNA,communications_transponder,,http://www.poi-factory.com/node/2227,,,,224.28,,NFM,Public,AMATEUR,,,"offset=-"
WD8JPP,-84.34,40,"Ludlow",WD8JPP,communications_transponder,,http://www.poi-factory.com/node/2227,,,,Falls,,NFM,Public,AMATEUR,,,"offset=224.1MHz"
KF4PVQ,-84.36,35.52,"Madisonville",KF4PVQ,communications_transponder,,http://www.poi-factory.com/node/2227,,,,224.18,141.3,NFM,Public,AMATEUR,,,"offset=-"
W4DOC,-84.39,33.75,"Atlanta",W4DOC,communications_transponder,,http://www.poi-factory.com/node/2227,,,,224.34,146.2,NFM,Public,AMATEUR,,,"offset=-"
W8BLV,-84.4,39.51,"Middletown",W8BLV,communications_transponder,,http://www.poi-factory.com/node/2227,,,,224.96,77,NFM,Public,AMATEUR,,,"offset=-"
W4UWH,-84.43,34.47,"Jasper",W4UWH,communications_transponder,,http://www.poi-factory.com/node/2227,,,,224.6,100,NFM,Public,AMATEUR,,,"offset=-"
K8YOJ,-84.46,39.16,"Cincinnati",K8YOJ,communications_transponder,,http://www.poi-factory.com/node/2227,,,,224.06,,NFM,Public,AMATEUR,,,"offset=-"
KB8AGU,-84.46,39.16,"Cincinnati",KB8AGU,communications_transponder,,http://www.poi-factory.com/node/2227,,,,224.62,110.9,NFM,Public,AMATEUR,,,"offset=-"
AC4AO,-84.5,38.05,"Lexington",AC4AO,communications_transponder,,http://www.poi-factory.com/node/2227,,,,224.42,,NFM,Public,AMATEUR,,,"offset=-"
KB4PNG,-84.51,36.5,"Oneida",KB4PNG,communications_transponder,,http://www.poi-factory.com/node/2227,,,,224.14,,NFM,Public,AMATEUR,,,"offset=-"
N4NFP,-84.54,33.92,"Atlanta/Marietta",N4NFP,communications_transponder,,http://www.poi-factory.com/node/2227,,,,224.12,151.4,NFM,Public,AMATEUR,,,"offset=-"
N4NEQ,-84.54,33.92,"Atlanta/Marietta",N4NEQ,communications_transponder,,http://www.poi-factory.com/node/2227,,,,224.44,151.4,NFM,Public,AMATEUR,,,"offset=-"
K4RFL,-84.54,33.92,"Atlanta/Marietta",K4RFL,communications_transponder,,http://www.poi-factory.com/node/2227,,,,224.96,100,NFM,Public,AMATEUR,,,"offset=-"
123,-84.55,42.1,"Hanover",123,communications_transponder,,http://www.poi-factory.com/node/2227,,,,224.26,K8WBG,NFM,Public,AMATEUR,,,"offset=-"
123,-84.55,42.1,"Hanover",123,communications_transponder,,http://www.poi-factory.com/node/2227,,,,224.9,K8WBG,NFM,Public,AMATEUR,,,"offset=-"
KD4ALC,-84.55,34.32,"Waleska",KD4ALC,communications_transponder,,http://www.poi-factory.com/node/2227,,,,224.14,,NFM,Public,AMATEUR,,,"offset=-"
K4AIS,-84.55,34.32,"Waleska",K4AIS,communications_transponder,,http://www.poi-factory.com/node/2227,,,,224.94,,NFM,Public,AMATEUR,,,"offset=-"
W4LMA,-84.55,33.95,"Marietta",W4LMA,communications_transponder,,http://www.poi-factory.com/node/2227,,,,224.9,,NFM,Public,AMATEUR,,,"offset=-"
100,-84.56,42.73,"Lansing",100,communications_transponder,,http://www.poi-factory.com/node/2227,,,,224.98,WB8CQM,NFM,Public,AMATEUR,,,"offset=-"
KA8YRN,-84.56,39.35,"Fairfield",KA8YRN,communications_transponder,,http://www.poi-factory.com/node/2227,,,,224.12,,NFM,Public,AMATEUR,,,"offset=-"
KD4RXF,-84.58,37.62,"Lancaster",KD4RXF,communications_transponder,,http://www.poi-factory.com/node/2227,,,,224.56,,NFM,Public,AMATEUR,,,"offset=-"
KF4PVQ,-84.59,35.44,"Athens",KF4PVQ,communications_transponder,,http://www.poi-factory.com/node/2227,,,,224.3,141.3,NFM,Public,AMATEUR,,,"offset=-"
N4AI,-84.6,37.09,"Somerset",N4AI,communications_transponder,,http://www.poi-factory.com/node/2227,,,,224.3,,NFM,Public,AMATEUR,,,"offset=-"
N4AI,-84.6,37.09,"Somerset",N4AI,communications_transponder,,http://www.poi-factory.com/node/2227,,,,224.88,,NFM,Public,AMATEUR,,,"offset=-"
N8NR,-84.63,40.1,"Greenville",N8NR,communications_transponder,,http://www.poi-factory.com/node/2227,,,,224.38,,NFM,Public,AMATEUR,,,"offset=-"
N4MTA,-84.68,34.07,"Acworth",N4MTA,communications_transponder,,http://www.poi-factory.com/node/2227,,,,224.32,123,NFM,Public,AMATEUR,,,"offset=-"
N4MTA,-84.68,34.07,"Acworth",N4MTA,communications_transponder,,http://www.poi-factory.com/node/2227,,,,224.5,123,NFM,Public,AMATEUR,,,"offset=-"
AD4CR,-84.73,38.05,"Versailles",AD4CR,communications_transponder,,http://www.poi-factory.com/node/2227,,,,224.22,,NFM,Public,AMATEUR,,,"offset=-"
KD8AX,-84.75,39.51,"Oxford",KD8AX,communications_transponder,,http://www.poi-factory.com/node/2227,,,,224.34,,NFM,Public,AMATEUR,,,"offset=-"
N8FTS,-84.75,39.51,"Oxford",N8FTS,communications_transponder,,http://www.poi-factory.com/node/2227,,,,224.64,,NFM,Public,AMATEUR,,,"offset=-"
KA4UHL,-84.75,37.07,"Nancy",KA4UHL,communications_transponder,,http://www.poi-factory.com/node/2227,,,,224.1,100,NFM,Public,AMATEUR,,,"offset=-"
N4YYD,-84.77,34.77,"Chatsworth",N4YYD,communications_transponder,,http://www.poi-factory.com/node/2227,,,,224.24,71.9,NFM,Public,AMATEUR,,,"offset=-"
W8FOC,-84.78,40.41,"Fort",W8FOC,communications_transponder,,http://www.poi-factory.com/node/2227,,,,Recovery,,NFM,Public,AMATEUR,,,"offset=224.62MHz"
103.5,-84.8,44.02,"Harrison",103.5,communications_transponder,,http://www.poi-factory.com/node/2227,,,,224.5,N8LYL,NFM,Public,AMATEUR,,,"offset=-"
N4YDX,-84.84,33.92,"Dallas",N4YDX,communications_transponder,,http://www.poi-factory.com/node/2227,,,,224.18,,NFM,Public,AMATEUR,,,"offset=-"
N4YEA,-84.84,33.92,"Dallas",N4YEA,communications_transponder,,http://www.poi-factory.com/node/2227,,,,224.54,,NFM,Public,AMATEUR,,,"offset=-"
W4TIY,-84.84,33.92,"Dallas",W4TIY,communications_transponder,,http://www.poi-factory.com/node/2227,,,,224.7,,NFM,Public,AMATEUR,,,"offset=-"
KK4US,-84.88,35.16,"Cleveland",KK4US,communications_transponder,,http://www.poi-factory.com/node/2227,,,,224.32,,NFM,Public,AMATEUR,,,"offset=-"
W4RRG,-84.88,35.16,"Cleveland",W4RRG,communications_transponder,,http://www.poi-factory.com/node/2227,,,,224.92,,NFM,Public,AMATEUR,,,"offset=-"
KB4TIW,-84.92,33.73,"Villa",KB4TIW,communications_transponder,,http://www.poi-factory.com/node/2227,,,,Rica,131.8,NFM,Public,AMATEUR,,,"offset=224.3MHz"
N4BZJ,-84.97,34.77,"Dalton",N4BZJ,communications_transponder,,http://www.poi-factory.com/node/2227,,,,224.36,100,NFM,Public,AMATEUR,,,"offset=-"
N4BZJ,-84.97,34.77,"Dalton",N4BZJ,communications_transponder,,http://www.poi-factory.com/node/2227,,,,224.46,118.8,NFM,Public,AMATEUR,,,"offset=-"
N4BZJ,-84.97,34.77,"Dalton",N4BZJ,communications_transponder,,http://www.poi-factory.com/node/2227,,,,224.68,,NFM,Public,AMATEUR,,,"offset=-"
N4KVC,-84.97,34.77,"Dalton",N4KVC,communications_transponder,,http://www.poi-factory.com/node/2227,,,,224.74,,NFM,Public,AMATEUR,,,"offset=-"
WD4LUQ,-85,33.92,"Yorkville",WD4LUQ,communications_transponder,,http://www.poi-factory.com/node/2227,,,,224.88,77,NFM,Public,AMATEUR,,,"offset=-"
100,-85.01,45.51,"Stutsmanville",100,communications_transponder,,http://www.poi-factory.com/node/2227,,,,224.56,WB8DEL,NFM,Public,AMATEUR,,,"offset=-"
KB8TI,-85.02,42.63,"Vermontville",KB8TI,communications_transponder,,http://www.poi-factory.com/node/2227,,,,224.6,,NFM,Public,AMATEUR,,,"offset=-"
W9FEZ,-85.13,41.13,"Fort",W9FEZ,communications_transponder,,http://www.poi-factory.com/node/2227,,,,Wayne,,NFM,Public,AMATEUR,,,"offset=224.8MHz"
W8DF,-85.18,42.32,"Battle",W8DF,communications_transponder,,http://www.poi-factory.com/node/2227,,,,Creek,,NFM,Public,AMATEUR,,,"offset=224.24MHz"
KC4KLW,-85.25,34.05,"Cedartown",KC4KLW,communications_transponder,,http://www.poi-factory.com/node/2227,,,,224.78,179.9,NFM,Public,AMATEUR,,,"offset=-"
K4VCM,-85.31,35.05,"Chattanooga",K4VCM,communications_transponder,,http://www.poi-factory.com/node/2227,,,,224.78,,NFM,Public,AMATEUR,,,"offset=-"
W4RRG,-85.36,34.98,"Lookout",W4RRG,communications_transponder,,http://www.poi-factory.com/node/2227,,,,Mt,,NFM,Public,AMATEUR,,,"offset=224.56MHz"
KA4KBX,-85.37,33.15,"Roanoke",KA4KBX,communications_transponder,,http://www.poi-factory.com/node/2227,,,,224.92,,NFM,Public,AMATEUR,,,"offset=-"
KB9KNG,-85.48,39.34,"Greensburg",KB9KNG,communications_transponder,,http://www.poi-factory.com/node/2227,,,,224.78,,NFM,Public,AMATEUR,,,"offset=-"
167.9,-85.55,43.22,"Cedar",167.9,communications_transponder,,http://www.poi-factory.com/node/2227,,,,Springs,NW8J,NFM,Public,AMATEUR,,,"offset=224.14MHz"
W4OZK,-85.59,34.58,"Mentone",W4OZK,communications_transponder,,http://www.poi-factory.com/node/2227,,,,224.72,114.8,NFM,Public,AMATEUR,,,"offset=-"
WB8VOJ,-85.67,42.96,"Grand",WB8VOJ,communications_transponder,,http://www.poi-factory.com/node/2227,,,,Rapids,,NFM,Public,AMATEUR,,,"offset=224.44MHz"
94.8,-85.67,42.96,"Grand",94.8,communications_transponder,,http://www.poi-factory.com/node/2227,,,,Rapids,W8DC,NFM,Public,AMATEUR,,,"offset=224.64MHz"
WD8KXA,-85.67,42.96,"Grand",WD8KXA,communications_transponder,,http://www.poi-factory.com/node/2227,,,,Rapids,,NFM,Public,AMATEUR,,,"offset=224.76MHz"
K8SG,-85.67,42.96,"Grand",K8SG,communications_transponder,,http://www.poi-factory.com/node/2227,,,,Rapids,,NFM,Public,AMATEUR,,,"offset=224.88MHz"
KA4MKT,-85.76,38.25,"Louisville",KA4MKT,communications_transponder,,http://www.poi-factory.com/node/2227,,,,224.3,,NFM,Public,AMATEUR,,,"offset=-"
KB4MDD,-85.76,32.83,"Dadeville",KB4MDD,communications_transponder,,http://www.poi-factory.com/node/2227,,,,224.24,146.2,NFM,Public,AMATEUR,,,"offset=-"
WD4ROJ,-85.86,31.32,"Enterprise",WD4ROJ,communications_transponder,,http://www.poi-factory.com/node/2227,,,,224.94,,NFM,Public,AMATEUR,,,"offset=-"
94.8,-85.88,42.36,"Gobles",94.8,communications_transponder,,http://www.poi-factory.com/node/2227,,,,224.74,AC8DX,NFM,Public,AMATEUR,,,"offset=-"
W9LZX,-85.98,41.68,"Elkhart",W9LZX,communications_transponder,,http://www.poi-factory.com/node/2227,,,,224.9,131.8,NFM,Public,AMATEUR,,,"offset=-"
N8DNZ,-86.11,33.43,"Talladega",N8DNZ,communications_transponder,,http://www.poi-factory.com/node/2227,,,,223.92,,NFM,Public,AMATEUR,,,"offset=-"
W9ICE,-86.16,39.77,"Indianapolis",W9ICE,communications_transponder,,http://www.poi-factory.com/node/2227,,,,224.92,,NFM,Public,AMATEUR,,,"offset=-"
W9ICE,-86.16,39.77,"Indianapolis",W9ICE,communications_transponder,,http://www.poi-factory.com/node/2227,,,,224.98,77,NFM,Public,AMATEUR,,,"offset=-"
KB8BIT,-86.32,44.24,"Manistee",KB8BIT,communications_transponder,,http://www.poi-factory.com/node/2227,,,,224.12,100,NFM,Public,AMATEUR,,,"offset=-"
W8YKS,-86.34,41.95,"Berrien",W8YKS,communications_transponder,,http://www.poi-factory.com/node/2227,,,,Springs,,NFM,Public,AMATEUR,,,"offset=224.3MHz"
WQ4E,-86.35,35.85,"Greenbriar",WQ4E,communications_transponder,,http://www.poi-factory.com/node/2227,,,,224.8,,NFM,Public,AMATEUR,,,"offset=-"
N8NIT,-86.36,41.83,"Buchanan",N8NIT,communications_transponder,,http://www.poi-factory.com/node/2227,,,,224.2,,NFM,Public,AMATEUR,,,"offset=-"
N4PYI,-86.42,35.84,"Short",N4PYI,communications_transponder,,http://www.poi-factory.com/node/2227,,,,Mtn,114.8,NFM,Public,AMATEUR,,,"offset=224.26MHz"
KC4WGH,-86.42,35.84,"Joyner",KC4WGH,communications_transponder,,http://www.poi-factory.com/node/2227,,,,224.84,88.5,NFM,Public,AMATEUR,,,"offset=-"
W4CAT,-86.45,36.39,"Gallatin",W4CAT,communications_transponder,,http://www.poi-factory.com/node/2227,,,,223.98,107.2,NFM,Public,AMATEUR,,,"offset=-"
KD4VUW,-86.45,36.39,"Gallatin",KD4VUW,communications_transponder,,http://www.poi-factory.com/node/2227,,,,224.7,,NFM,Public,AMATEUR,,,"offset=-"
KD4NHT,-86.57,30.76,"Crestview",KD4NHT,communications_transponder,,http://www.poi-factory.com/node/2227,,,,224.82,100,NFM,Public,AMATEUR,,,"offset=-"
KD4NHT,-86.57,30.76,"Crestview",KD4NHT,communications_transponder,,http://www.poi-factory.com/node/2227,,,,224.9,100,NFM,Public,AMATEUR,,,"offset=-"
WR3S,-86.58,36.02,"Lavergne",WR3S,communications_transponder,,http://www.poi-factory.com/node/2227,,,,224.36,,NFM,Public,AMATEUR,,,"offset=-"
N4HSV,-86.59,34.73,"Huntsville",N4HSV,communications_transponder,,http://www.poi-factory.com/node/2227,,,,224.94,100,NFM,Public,AMATEUR,,,"offset=-"
WB4SJV,-86.62,36.2,"Hermitage",WB4SJV,communications_transponder,,http://www.poi-factory.com/node/2227,,,,223.9,,NFM,Public,AMATEUR,,,"offset=-"
N4PHP,-86.72,32.85,"Shelby",N4PHP,communications_transponder,,http://www.poi-factory.com/node/2227,,,,County,100,NFM,Public,AMATEUR,,,"offset=224.5MHz"
W4UWH,-86.72,32.85,"Cheaha",W4UWH,communications_transponder,,http://www.poi-factory.com/node/2227,,,,Mtn,,NFM,Public,AMATEUR,,,"offset=224.84MHz"
WR3S,-86.78,36.17,"Nashville",WR3S,communications_transponder,,http://www.poi-factory.com/node/2227,,,,224.16,,NFM,Public,AMATEUR,,,"offset=-"
KC4TFQ,-86.78,36.17,"Nashville",KC4TFQ,communications_transponder,,http://www.poi-factory.com/node/2227,,,,224.44,,NFM,Public,AMATEUR,,,"offset=-"
K4ZGA,-86.78,36.17,"Nashville",K4ZGA,communications_transponder,,http://www.poi-factory.com/node/2227,,,,224.48,,NFM,Public,AMATEUR,,,"offset=-"
WR3S,-86.78,36.17,"Nashville",WR3S,communications_transponder,,http://www.poi-factory.com/node/2227,,,,224.66,,NFM,Public,AMATEUR,,,"offset=-"
N4PYI,-86.78,36.17,"Nashville",N4PYI,communications_transponder,,http://www.poi-factory.com/node/2227,,,,224.74,100,NFM,Public,AMATEUR,,,"offset=-"
KC4PRD,-86.78,36.17,"Nashville",KC4PRD,communications_transponder,,http://www.poi-factory.com/node/2227,,,,224.84,,NFM,Public,AMATEUR,,,"offset=-"
WA4PCD,-86.78,36.17,"Nashville",WA4PCD,communications_transponder,,http://www.poi-factory.com/node/2227,,,,224.94,,NFM,Public,AMATEUR,,,"offset=-"
WR3S,-86.78,36.17,"Nashville",WR3S,communications_transponder,,http://www.poi-factory.com/node/2227,,,,224.96,,NFM,Public,AMATEUR,,,"offset=-"
KF4TNP,-86.79,35.45,"Lewisburg",KF4TNP,communications_transponder,,http://www.poi-factory.com/node/2227,,,,224.1,,NFM,Public,AMATEUR,,,"offset=-"
K4TQR,-86.8,33.52,"Birmingham",K4TQR,communications_transponder,,http://www.poi-factory.com/node/2227,,,,224.22,,NFM,Public,AMATEUR,,,"offset=-"
WQ4E,-86.81,36.43,"Greenbrier",WQ4E,communications_transponder,,http://www.poi-factory.com/node/2227,,,,224.76,,NFM,Public,AMATEUR,,,"offset=-"
W4GQF,-86.81,33.81,"Warrior",W4GQF,communications_transponder,,http://www.poi-factory.com/node/2227,,,,224.12,,NFM,Public,AMATEUR,,,"offset=-"
W9YB,-86.87,40.42,"Lafayette",W9YB,communications_transponder,,http://www.poi-factory.com/node/2227,,,,224.96,,NFM,Public,AMATEUR,,,"offset=-"
KO4BN,-86.89,36.51,"Springfield",KO4BN,communications_transponder,,http://www.poi-factory.com/node/2227,,,,224.22,,NFM,Public,AMATEUR,,,"offset=-"
W9KOP,-86.98,34.61,"Decatur",W9KOP,communications_transponder,,http://www.poi-factory.com/node/2227,,,,224.1,,NFM,Public,AMATEUR,,,"offset=-1.6MHz"
KC4ZUG,-87.34,30.61,"Cantonment",KC4ZUG,communications_transponder,,http://www.poi-factory.com/node/2227,,,,224.94,,NFM,Public,AMATEUR,,,"offset=-"
N4PJX,-87.36,36.53,"Clarksville",N4PJX,communications_transponder,,http://www.poi-factory.com/node/2227,,,,224.42,123,NFM,Public,AMATEUR,,,"offset=-"
WJ2W,-87.41,39.47,"Terre",WJ2W,communications_transponder,,http://www.poi-factory.com/node/2227,,,,Haute,,NFM,Public,AMATEUR,,,"offset=224.88MHz"
KE9VS,-87.45,41.48,"Schererville",KE9VS,communications_transponder,,http://www.poi-factory.com/node/2227,,,,224.74,131.8,NFM,Public,AMATEUR,,,"offset=-"
KM4HP,-87.47,30.52,"Seminole",KM4HP,communications_transponder,,http://www.poi-factory.com/node/2227,,,,224.94,,NFM,Public,AMATEUR,,,"offset=-"
KC9EBB,-87.65,41.85,"Chicago",KC9EBB,communications_transponder,,http://www.poi-factory.com/node/2227,,,,223.88,110.9,NFM,Public,AMATEUR,,,"offset=-"
W9TMC,-87.65,41.85,"Chicago",W9TMC,communications_transponder,,http://www.poi-factory.com/node/2227,,,,224.02,103.5,NFM,Public,AMATEUR,,,"offset=-"
WD9GEH,-87.65,41.85,"Chicago",WD9GEH,communications_transponder,,http://www.poi-factory.com/node/2227,,,,224.06,110.9,NFM,Public,AMATEUR,,,"offset=-"
WA9ORC,-87.65,41.85,"Chicago",WA9ORC,communications_transponder,,http://www.poi-factory.com/node/2227,,,,224.1,,NFM,Public,AMATEUR,,,"offset=-"
W9RA,-87.65,41.85,"Chicago",W9RA,communications_transponder,,http://www.poi-factory.com/node/2227,,,,224.34,103.5,NFM,Public,AMATEUR,,,"offset=-"
N9XP,-87.65,41.85,"Chicago",N9XP,communications_transponder,,http://www.poi-factory.com/node/2227,,,,224.64,110.9,NFM,Public,AMATEUR,,,"offset=-"
