name,longitude,latitude,location,ref,man_made,operator,source,url,height,ele,communications_transponder:frequency,communications_transponder:tone,communications_transponder:modulation,communications_transponder:access,communications_transponder:service,communications_transponder:polarisation,communications_transponder:power,comment
KH6ENC,-159.71521,21.971289,"Kekaha",KH6ENC,communications_transponder,,http://www.poi-factory.com/node/2227,,,,146.86,,NFM,Public,AMATEUR,,,"offset=-"
NH7HI,-159.670837,21.958202,"Waimea",NH7HI,communications_transponder,,http://www.poi-factory.com/node/2227,,,,147.32,,NFM,Public,AMATEUR,,,"offset=+"
KH7T,-159.670837,21.958202,"Waimea",KH7T,communications_transponder,,http://www.poi-factory.com/node/2227,,,,147.38,,NFM,Public,AMATEUR,,,"offset=+"
NH6HI,-159.530258,21.928688,"Kalaheo",NH6HI,communications_transponder,,http://www.poi-factory.com/node/2227,,,,146.96,,NFM,Public,AMATEUR,,,"offset=-"
NH6FJ,-159.371643,21.980274,"Lihue",NH6FJ,communications_transponder,,http://www.poi-factory.com/node/2227,,,,147.04,,NFM,Public,AMATEUR,,,"offset=+"
KH6E,-159.371643,21.980274,"Lihue",KH6E,communications_transponder,,http://www.poi-factory.com/node/2227,,,,147.16,,NFM,Public,AMATEUR,,,"offset=+"
WH6Z,-159.358032,21.997761,"Hanamaulu",WH6Z,communications_transponder,,http://www.poi-factory.com/node/2227,,,,146.66,,NFM,Public,AMATEUR,,,"offset=-"
NH6PE,-158.188263,21.445919,"Waianae",NH6PE,communications_transponder,,http://www.poi-factory.com/node/2227,,,,146.74,,NFM,Public,AMATEUR,,,"offset=-"
KH6CY,-158.040436,21.342449,"Ewa",KH6CY,communications_transponder,,http://www.poi-factory.com/node/2227,,,,146.6,103.5,NFM,Public,AMATEUR,,,"offset=-"
WH6MK,-158.040436,21.342449,"Ewa",WH6MK,communications_transponder,,http://www.poi-factory.com/node/2227,,,,147.38,,NFM,Public,AMATEUR,,,"offset=+"
AH7HI,-157.858444,21.3067,"Honolulu",AH7HI,communications_transponder,,http://www.poi-factory.com/node/2227,,,,145.21,,NFM,Public,AMATEUR,,,"offset=-"
WH6F,-157.858444,21.3067,"Honolulu",WH6F,communications_transponder,,http://www.poi-factory.com/node/2227,,,,145.47,,NFM,Public,AMATEUR,,,"offset=-"
WH6HR,-157.858444,21.3067,"Honolulu",WH6HR,communications_transponder,,http://www.poi-factory.com/node/2227,,,,145.49,,NFM,Public,AMATEUR,,,"offset=-"
KH6WO,-157.858444,21.3067,"Honolulu",KH6WO,communications_transponder,,http://www.poi-factory.com/node/2227,,,,146.78,,NFM,Public,AMATEUR,,,"offset=-"
KH6JUU,-157.858444,21.3067,"Honolulu",KH6JUU,communications_transponder,,http://www.poi-factory.com/node/2227,,,,146.84,,NFM,Public,AMATEUR,,,"offset=-"
WH6CZB,-157.858444,21.3067,"Honolulu",WH6CZB,communications_transponder,,http://www.poi-factory.com/node/2227,,,,146.98,,NFM,Public,AMATEUR,,,"offset=-"
KH6ICX,-157.858444,21.3067,"Honolulu",KH6ICX,communications_transponder,,http://www.poi-factory.com/node/2227,,,,147.22,,NFM,Public,AMATEUR,,,"offset=+"
AH6BW,-157.858444,21.3067,"Honolulu",AH6BW,communications_transponder,,http://www.poi-factory.com/node/2227,,,,147.34,,NFM,Public,AMATEUR,,,"offset=+"
KH6BFZ,-157.802856,21.4177,"Kaneohe",KH6BFZ,communications_transponder,,http://www.poi-factory.com/node/2227,,,,147.2,,NFM,Public,AMATEUR,,,"offset=+"
WH6CWI,-157.738953,21.402868,"Kailua",WH6CWI,communications_transponder,,http://www.poi-factory.com/node/2227,,,,145.15,,NFM,Public,AMATEUR,,,"offset=-"
WH6CZB,-157.738953,21.402868,"Kailua",WH6CZB,communications_transponder,,http://www.poi-factory.com/node/2227,,,,146.66,,NFM,Public,AMATEUR,,,"offset=-"
WH6CXI,-157.720642,21.348969,"Waimanalo",WH6CXI,communications_transponder,,http://www.poi-factory.com/node/2227,,,,145.23,,NFM,Public,AMATEUR,,,"offset=-"
AH6PQ,-157.720642,21.348969,"Waimanalo",AH6PQ,communications_transponder,,http://www.poi-factory.com/node/2227,,,,146.7,,NFM,Public,AMATEUR,,,"offset=-"
KH6EJ,-157.215729,21.136154,"Maunaloa",KH6EJ,communications_transponder,,http://www.poi-factory.com/node/2227,,,,146.82,,NFM,Public,AMATEUR,,,"offset=-"
AH6JA,-157.215729,21.136154,"MaunaLoa",AH6JA,communications_transponder,,http://www.poi-factory.com/node/2227,,,,147.04,,NFM,Public,AMATEUR,,,"offset=+"
W6KAG,-157.039688,21.155024,"Kualapuu",W6KAG,communications_transponder,,http://www.poi-factory.com/node/2227,,,,145.37,,NFM,Public,AMATEUR,,,"offset=-"
WH6CZB,-156.947998,21.225901,"Diamond",WH6CZB,communications_transponder,,http://www.poi-factory.com/node/2227,,,,Head,,NFM,Public,AMATEUR,,,"offset=146.88MHz"
AH6RH,-156.947998,21.225901,"Diamond",AH6RH,communications_transponder,,http://www.poi-factory.com/node/2227,,,,Head,,NFM,Public,AMATEUR,,,"offset=147.06MHz"
KH7O,-156.947998,21.225901,"Diamond",KH7O,communications_transponder,,http://www.poi-factory.com/node/2227,,,,Head,,NFM,Public,AMATEUR,,,"offset=147.36MHz"
NH6XO,-156.947998,21.225901,"Haleakala",NH6XO,communications_transponder,,http://www.poi-factory.com/node/2227,,,,146.94,,NFM,Public,AMATEUR,,,"offset=-"
WH6KO,-156.947998,21.225901,"Haleakala",WH6KO,communications_transponder,,http://www.poi-factory.com/node/2227,,,,146.94,,NFM,Public,AMATEUR,,,"offset=-"
KH6H,-156.947998,21.225901,"Haleakala",KH6H,communications_transponder,,http://www.poi-factory.com/node/2227,,,,147.02,,NFM,Public,AMATEUR,,,"offset=+"
AH6GR,-156.947998,21.225901,"Haleakala",AH6GR,communications_transponder,,http://www.poi-factory.com/node/2227,,,,147.18,,NFM,Public,AMATEUR,,,"offset=+"
WH6DEW,-156.947998,21.225901,"Hualalai",WH6DEW,communications_transponder,,http://www.poi-factory.com/node/2227,,,,147.16,,NFM,Public,AMATEUR,,,"offset=+"
KH6E,-156.947998,21.225901,"Kahili",KH6E,communications_transponder,,http://www.poi-factory.com/node/2227,,,,146.92,,NFM,Public,AMATEUR,,,"offset=-"
KH6JJC,-156.947998,21.225901,"Kukuilono",KH6JJC,communications_transponder,,http://www.poi-factory.com/node/2227,,,,146.82,,NFM,Public,AMATEUR,,,"offset=-"
KH6EJ,-156.947998,21.225901,"Kulani",KH6EJ,communications_transponder,,http://www.poi-factory.com/node/2227,,,,Cone,,NFM,Public,AMATEUR,,,"offset=146.76MHz"
NH6QJ,-156.947998,21.225901,"Leeward",NH6QJ,communications_transponder,,http://www.poi-factory.com/node/2227,,,,145.13,,NFM,Public,AMATEUR,,,"offset=-"
KH7TK,-156.947998,21.225901,"Leeward",KH7TK,communications_transponder,,http://www.poi-factory.com/node/2227,,,,145.43,77,NFM,Public,AMATEUR,,,"offset=-"
KH6EJZ,-156.947998,21.225901,"Leeward",KH6EJZ,communications_transponder,,http://www.poi-factory.com/node/2227,,,,145.45,,NFM,Public,AMATEUR,,,"offset=-"
KH6EJZ,-156.947998,21.225901,"Leeward",KH6EJZ,communications_transponder,,http://www.poi-factory.com/node/2227,,,,147.08,,NFM,Public,AMATEUR,,,"offset=+"
WR6AVM,-156.947998,21.225901,"Maunakapu",WR6AVM,communications_transponder,,http://www.poi-factory.com/node/2227,,,,146.62,,NFM,Public,AMATEUR,,,"offset=-"
WH6CZB,-156.947998,21.225901,"Maunakapu",WH6CZB,communications_transponder,,http://www.poi-factory.com/node/2227,,,,146.8,,NFM,Public,AMATEUR,,,"offset=-"
KH6JPL,-156.947998,21.225901,"Maunakapu",KH6JPL,communications_transponder,,http://www.poi-factory.com/node/2227,,,,147.12,,NFM,Public,AMATEUR,,,"offset=+"
AH6J,-156.947998,21.225901,"MaunaKea",AH6J,communications_transponder,,http://www.poi-factory.com/node/2227,,,,146.72,,NFM,Public,AMATEUR,,,"offset=-"
WH6CZB,-156.947998,21.225901,"North",WH6CZB,communications_transponder,,http://www.poi-factory.com/node/2227,,,,Shore,,NFM,Public,AMATEUR,,,"offset=146.64MHz"
KH6FV,-156.947998,21.225901,"North",KH6FV,communications_transponder,,http://www.poi-factory.com/node/2227,,,,Shore,,NFM,Public,AMATEUR,,,"offset=146.76MHz"
KH6LJ,-156.947998,21.225901,"North",KH6LJ,communications_transponder,,http://www.poi-factory.com/node/2227,,,,Shore,,NFM,Public,AMATEUR,,,"offset=146.9MHz"
NH6XO,-156.947998,21.225901,"North",NH6XO,communications_transponder,,http://www.poi-factory.com/node/2227,,,,Shore,,NFM,Public,AMATEUR,,,"offset=147.36MHz"
KH6BYU,-156.947998,21.225901,"NorthShore",KH6BYU,communications_transponder,,http://www.poi-factory.com/node/2227,,,,145.29,,NFM,Public,AMATEUR,,,"offset=-"
KH6BS,-156.947998,21.225901,"Windward",KH6BS,communications_transponder,,http://www.poi-factory.com/node/2227,,,,147.14,,NFM,Public,AMATEUR,,,"offset=+"
AL2J,-156.928497,64.731133,"Galena",AL2J,communications_transponder,,http://www.poi-factory.com/node/2227,,,,146.79,103.5,NFM,Public,AMATEUR,,,"offset=-"
NH6VR,-156.682159,20.878519,"Lahaina",NH6VR,communications_transponder,,http://www.poi-factory.com/node/2227,,,,146.64,,NFM,Public,AMATEUR,,,"offset=-"
AH6IF,-156.504547,20.890951,"Wailuku",AH6IF,communications_transponder,,http://www.poi-factory.com/node/2227,,,,146.76,,NFM,Public,AMATEUR,,,"offset=-"
KH6ANA,-155.983826,19.727898,"Kalaoa",KH6ANA,communications_transponder,,http://www.poi-factory.com/node/2227,,,,145.41,,NFM,Public,AMATEUR,,,"offset=-"
KH6ANA,-155.922699,19.521526,"Kealakekua",KH6ANA,communications_transponder,,http://www.poi-factory.com/node/2227,,,,144.51,,NFM,Public,AMATEUR,,,"offset=+"
K6HI,-155.922699,19.521526,"Kealakekua",K6HI,communications_transponder,,http://www.poi-factory.com/node/2227,,,,147.34,,NFM,Public,AMATEUR,,,"offset=+"
WH6FC,-155.611099,20.109602,"Kau",WH6FC,communications_transponder,,http://www.poi-factory.com/node/2227,,,,145.29,141.3,NFM,Public,AMATEUR,,,"offset=-"
KH6EJ,-155.611099,20.109602,"Kau",KH6EJ,communications_transponder,,http://www.poi-factory.com/node/2227,,,,146.92,,NFM,Public,AMATEUR,,,"offset=-"
KH6EJ,-155.611099,20.109602,"Kau",KH6EJ,communications_transponder,,http://www.poi-factory.com/node/2227,,,,147.28,,NFM,Public,AMATEUR,,,"offset=+"
AH6GG,-155.15332,19.49255,"Glenwood",AH6GG,communications_transponder,,http://www.poi-factory.com/node/2227,,,,147,141.3,NFM,Public,AMATEUR,,,"offset=+"
KH6EJ,-155.106934,19.833445,"Pepeekeo",KH6EJ,communications_transponder,,http://www.poi-factory.com/node/2227,,,,146.88,,NFM,Public,AMATEUR,,,"offset=-"
AH6GG,-155.090744,19.728956,"Hilo",AH6GG,communications_transponder,,http://www.poi-factory.com/node/2227,,,,146.66,141.3,NFM,Public,AMATEUR,,,"offset=-"
KH6EJ,-155.090744,19.728956,"Hilo",KH6EJ,communications_transponder,,http://www.poi-factory.com/node/2227,,,,146.68,,NFM,Public,AMATEUR,,,"offset=-"
AH6GO,-155.090744,19.728956,"Hilo",AH6GO,communications_transponder,,http://www.poi-factory.com/node/2227,,,,147.1,,NFM,Public,AMATEUR,,,"offset=+"
AL7LQ,-152.406418,57.78994,"Kodiak",AL7LQ,communications_transponder,,http://www.poi-factory.com/node/2227,,,,146.88,141.3,NFM,Public,AMATEUR,,,"offset=-"
KL7JBV,-152.406418,57.78994,"Kodiak",KL7JBV,communications_transponder,,http://www.poi-factory.com/node/2227,,,,146.94,103.5,NFM,Public,AMATEUR,,,"offset=-"
KL7XO,-151.647003,65.285797,"Chena",KL7XO,communications_transponder,,http://www.poi-factory.com/node/2227,,,,Dome,103.5,NFM,Public,AMATEUR,,,"offset=146.79MHz"
W6SJJ,-151.647003,65.285797,"Crystal",W6SJJ,communications_transponder,,http://www.poi-factory.com/node/2227,,,,Mt,,NFM,Public,AMATEUR,,,"offset=147.36MHz"
KL7HFI,-151.647003,65.285797,"Juneau-H",KL7HFI,communications_transponder,,http://www.poi-factory.com/node/2227,,,,Ridge,,NFM,Public,AMATEUR,,,"offset=146.64MHz"
KL7PF,-151.647003,65.285797,"Juneau-Lena",KL7PF,communications_transponder,,http://www.poi-factory.com/node/2227,,,,Point,,NFM,Public,AMATEUR,,,"offset=147MHz"
KL7PF,-151.647003,65.285797,"Juneau-Tramsite",KL7PF,communications_transponder,,http://www.poi-factory.com/node/2227,,,,146.82,,NFM,Public,AMATEUR,,,"offset=-"
KL7KC,-151.647003,65.285797,"Manley",KL7KC,communications_transponder,,http://www.poi-factory.com/node/2227,,,,147.03,103.5,NFM,Public,AMATEUR,,,"offset=+"
KL7IWC,-151.647003,65.285797,"Mendenhall",KL7IWC,communications_transponder,,http://www.poi-factory.com/node/2227,,,,147.3,,NFM,Public,AMATEUR,,,"offset=+"
AL7LE,-151.259766,60.554199,"Kenai",AL7LE,communications_transponder,,http://www.poi-factory.com/node/2227,,,,146.88,141.3,NFM,Public,AMATEUR,,,"offset=-"
WL7CVG,-150.507782,61.546169,"Mt",WL7CVG,communications_transponder,,http://www.poi-factory.com/node/2227,,,,Susitna,103.5,NFM,Public,AMATEUR,,,"offset=147.27MHz"
AA0NN,-150.241638,62.318192,"Trapper",AA0NN,communications_transponder,,http://www.poi-factory.com/node/2227,,,,Creek,,NFM,Public,AMATEUR,,,"offset=145.49MHz"
KL7AA,-149.899612,61.218552,"Anchorage",KL7AA,communications_transponder,,http://www.poi-factory.com/node/2227,,,,146.94,100,NFM,Public,AMATEUR,,,"offset=-"
KL7CC,-149.899612,61.218552,"Anchorage",KL7CC,communications_transponder,,http://www.poi-factory.com/node/2227,,,,146.97,103.5,NFM,Public,AMATEUR,,,"offset=-"
KL7ION,-149.899612,61.218552,"Anchorage",KL7ION,communications_transponder,,http://www.poi-factory.com/node/2227,,,,147.3,141.3,NFM,Public,AMATEUR,,,"offset=+"
WL7CVG,-149.899612,61.218552,"Anchorage",WL7CVG,communications_transponder,,http://www.poi-factory.com/node/2227,,,,147.33,103.5,NFM,Public,AMATEUR,,,"offset=+"
KL7AIR,-149.800812,61.240971,"Elmendorf",KL7AIR,communications_transponder,,http://www.poi-factory.com/node/2227,,,,AFB,107.2,NFM,Public,AMATEUR,,,"offset=146.67MHz"
KL7GG,-149.68721,61.254654,"Ft",KL7GG,communications_transponder,,http://www.poi-factory.com/node/2227,,,,Richardson,100,NFM,Public,AMATEUR,,,"offset=147.39MHz"
KL7GG,-149.568192,61.321602,"Eagle",KL7GG,communications_transponder,,http://www.poi-factory.com/node/2227,,,,River,100,NFM,Public,AMATEUR,,,"offset=145.45MHz"
NL7J,-149.480301,61.388729,"Chugiak",NL7J,communications_transponder,,http://www.poi-factory.com/node/2227,,,,147.15,107.2,NFM,Public,AMATEUR,,,"offset=+"
KL7BK,-149.439407,61.580597,"Wasilla",KL7BK,communications_transponder,,http://www.poi-factory.com/node/2227,,,,147,103.5,NFM,Public,AMATEUR,,,"offset=+"
KL7GNG,-149.118423,63.330231,"Cleary",KL7GNG,communications_transponder,,http://www.poi-factory.com/node/2227,,,,Summit,,NFM,Public,AMATEUR,,,"offset=146.67MHz"
KL7CC,-149.112457,61.600216,"Palmer",KL7CC,communications_transponder,,http://www.poi-factory.com/node/2227,,,,147.57,103.5,NFM,Public,AMATEUR,,,"offset=300MHz"
WL7TY,-149.092941,64.563957,"Nenana",WL7TY,communications_transponder,,http://www.poi-factory.com/node/2227,,,,147.06,,NFM,Public,AMATEUR,,,"offset=+"
KL7KC,-148.96611,63.856941,"Healy",KL7KC,communications_transponder,,http://www.poi-factory.com/node/2227,,,,144.88,103.5,NFM,Public,AMATEUR,,,"offset=none"
KL1SF,-148.96611,63.856941,"Healy",KL1SF,communications_transponder,,http://www.poi-factory.com/node/2227,,,,147.24,,NFM,Public,AMATEUR,,,"offset=-0.24MHz"
KL7KC,-148.953156,63.38599,"Cantwell",KL7KC,communications_transponder,,http://www.poi-factory.com/node/2227,,,,146.82,103.5,NFM,Public,AMATEUR,,,"offset=-"
KL7KC,-148.943054,63.737751,"Denali",KL7KC,communications_transponder,,http://www.poi-factory.com/node/2227,,,,Park,,NFM,Public,AMATEUR,,,"offset=146.76MHz"
KL7KC,-147.713776,64.838249,"Fairbanks",KL7KC,communications_transponder,,http://www.poi-factory.com/node/2227,,,,146.88,103.5,NFM,Public,AMATEUR,,,"offset=-"
KL7KC,-147.713776,64.838249,"Fairbanks",KL7KC,communications_transponder,,http://www.poi-factory.com/node/2227,,,,146.94,,NFM,Public,AMATEUR,,,"offset=-"
KL7KC,-147.713776,64.838249,"Fairbanks",KL7KC,communications_transponder,,http://www.poi-factory.com/node/2227,,,,147.09,103.5,NFM,Public,AMATEUR,,,"offset=+"
KL7EDK,-147.713776,64.838249,"Fairbanks",KL7EDK,communications_transponder,,http://www.poi-factory.com/node/2227,,,,147.3,,NFM,Public,AMATEUR,,,"offset=+"
WL7TY,-147.350906,64.751076,"North",WL7TY,communications_transponder,,http://www.poi-factory.com/node/2227,,,,Pole,,NFM,Public,AMATEUR,,,"offset=146.7MHz"
KL7KC,-147.350906,64.751076,"North",KL7KC,communications_transponder,,http://www.poi-factory.com/node/2227,,,,Pole,,NFM,Public,AMATEUR,,,"offset=146.79MHz"
KL7KC,-147.099594,64.664597,"Eielson",KL7KC,communications_transponder,,http://www.poi-factory.com/node/2227,,,,AFB,103.5,NFM,Public,AMATEUR,,,"offset=147.12MHz"
KL7KC,-145.733261,64.038147,"Delta",KL7KC,communications_transponder,,http://www.poi-factory.com/node/2227,,,,Junction,103.5,NFM,Public,AMATEUR,,,"offset=146.82MHz"
KL7KC,-144.08609,63.634953,"Dot",KL7KC,communications_transponder,,http://www.poi-factory.com/node/2227,,,,Lake,103.5,NFM,Public,AMATEUR,,,"offset=146.88MHz"
KL7B,-141.935944,64.073105,"Chicken",KL7B,communications_transponder,,http://www.poi-factory.com/node/2227,,,,147.09,103.5,NFM,Public,AMATEUR,,,"offset=+"
KL7FFR,-135.330566,57.052731,"Sitka",KL7FFR,communications_transponder,,http://www.poi-factory.com/node/2227,,,,146.82,,NFM,Public,AMATEUR,,,"offset=-"
KL7FFP,-132.955734,56.812298,"Petersburg",KL7FFP,communications_transponder,,http://www.poi-factory.com/node/2227,,,,146.96,,NFM,Public,AMATEUR,,,"offset=-"
KL7ST,-131.646347,55.342415,"Ketchikan",KL7ST,communications_transponder,,http://www.poi-factory.com/node/2227,,,,146.79,,NFM,Public,AMATEUR,,,"offset=-"
K7PP,-124.6833,48.372,"Bahokas",K7PP,communications_transponder,,http://www.poi-factory.com/node/2227,,,,Peak,103.5,NFM,Public,AMATEUR,,,"offset=147.28MHz"
K7SEG,-124.419411,42.4072,"Gold",K7SEG,communications_transponder,,http://www.poi-factory.com/node/2227,,,,Beach,88.5,NFM,Public,AMATEUR,,,"offset=146.74MHz"
K7PP,-124.383171,47.950569,"Forks",K7PP,communications_transponder,,http://www.poi-factory.com/node/2227,,,,145.37,114.8,NFM,Public,AMATEUR,,,"offset=-"
W6HY,-124.20015,41.755989,"Crescent",W6HY,communications_transponder,,http://www.poi-factory.com/node/2227,,,,City,136.5,NFM,Public,AMATEUR,,,"offset=146.88MHz"
KF6VFH,-124.20015,41.755989,"Crescent",KF6VFH,communications_transponder,,http://www.poi-factory.com/node/2227,,,,City,136.5,NFM,Public,AMATEUR,,,"offset=147.18MHz"
K7CCH,-124.186096,43.175861,"Coquille",K7CCH,communications_transponder,,http://www.poi-factory.com/node/2227,,,,146.61,,NFM,Public,AMATEUR,,,"offset=-"
KD6RC,-124.162491,40.80151,"Eureka",KD6RC,communications_transponder,,http://www.poi-factory.com/node/2227,,,,146.7,103.5,NFM,Public,AMATEUR,,,"offset=-"
KA6ROM,-124.156631,40.597252,"Fortuna",KA6ROM,communications_transponder,,http://www.poi-factory.com/node/2227,,,,147.09,103.5,NFM,Public,AMATEUR,,,"offset=+"
N6AFT,-124.156631,40.597252,"Fortuna",N6AFT,communications_transponder,,http://www.poi-factory.com/node/2227,,,,147.36,103.5,NFM,Public,AMATEUR,,,"offset=+"
W7EXH,-124.137299,43.064732,"Myrtle",W7EXH,communications_transponder,,http://www.poi-factory.com/node/2227,,,,Point,,NFM,Public,AMATEUR,,,"offset=146.92MHz"
W7VTW,-124.051041,44.637161,"Newport",W7VTW,communications_transponder,,http://www.poi-factory.com/node/2227,,,,147.3,,NFM,Public,AMATEUR,,,"offset=+"
KA7TRY,-124.05,44.4,"Waldport",KA7TRY,communications_transponder,,http://www.poi-factory.com/node/2227,,,,147,,NFM,Public,AMATEUR,,,"offset=+"
W7RDR,-124.041367,46.308819,"Ilwaco",W7RDR,communications_transponder,,http://www.poi-factory.com/node/2227,,,,146.86,114.8,NFM,Public,AMATEUR,,,"offset=-"
WB6UCY,-124.037178,41.52681,"Klamath",WB6UCY,communications_transponder,,http://www.poi-factory.com/node/2227,,,,147.39,103.5,NFM,Public,AMATEUR,,,"offset=+"
W7VTW,-124.016685,44.958542,"Lincoln",W7VTW,communications_transponder,,http://www.poi-factory.com/node/2227,,,,City,,NFM,Public,AMATEUR,,,"offset=147.04MHz"
W7BU,-123.95948,45.82869,"Arch",W7BU,communications_transponder,,http://www.poi-factory.com/node/2227,,,,Cape,118.8,NFM,Public,AMATEUR,,,"offset=146.74MHz"
KM6TE,-123.920868,40.32148,"Weott",KM6TE,communications_transponder,,http://www.poi-factory.com/node/2227,,,,147.33,103.5,NFM,Public,AMATEUR,,,"offset=+"
NM7R,-123.858139,46.250549,"Megler",NM7R,communications_transponder,,http://www.poi-factory.com/node/2227,,,,147.18,118.8,NFM,Public,AMATEUR,,,"offset=+"
W7BU,-123.85763,46.2509,"Megler",W7BU,communications_transponder,,http://www.poi-factory.com/node/2227,,,,Mtn,118.8,NFM,Public,AMATEUR,,,"offset=145.45MHz"
W7FBM,-123.830147,46.187752,"Astoria",W7FBM,communications_transponder,,http://www.poi-factory.com/node/2227,,,,146.66,118.8,NFM,Public,AMATEUR,,,"offset=-"
W7BU,-123.830147,46.187752,"Astoria",W7BU,communications_transponder,,http://www.poi-factory.com/node/2227,,,,146.76,118.8,NFM,Public,AMATEUR,,,"offset=-"
W7ZA,-123.814362,46.976059,"Aberdeen",W7ZA,communications_transponder,,http://www.poi-factory.com/node/2227,,,,147.16,88.5,NFM,Public,AMATEUR,,,"offset=+"
K6MHE,-123.804619,39.445339,"Fort",K6MHE,communications_transponder,,http://www.poi-factory.com/node/2227,,,,Bragg,103.5,NFM,Public,AMATEUR,,,"offset=147.03MHz"
NM7R,-123.802368,46.66341,"South",NM7R,communications_transponder,,http://www.poi-factory.com/node/2227,,,,Bend,118.8,NFM,Public,AMATEUR,,,"offset=145.31MHz"
NM7R,-123.802368,46.66341,"South",NM7R,communications_transponder,,http://www.poi-factory.com/node/2227,,,,Bend,118.8,NFM,Public,AMATEUR,,,"offset=147.34MHz"
WD6HDY,-123.798103,39.30785,"Mendocino",WD6HDY,communications_transponder,,http://www.poi-factory.com/node/2227,,,,146.82,103.5,NFM,Public,AMATEUR,,,"offset=-"
N6VA,-123.793701,40.100231,"Garberville",N6VA,communications_transponder,,http://www.poi-factory.com/node/2227,,,,146.61,103.5,NFM,Public,AMATEUR,,,"offset=-"
W6CLG,-123.793701,40.100231,"Garberville",W6CLG,communications_transponder,,http://www.poi-factory.com/node/2227,,,,146.79,103.5,NFM,Public,AMATEUR,,,"offset=-"
K7PP,-123.730919,46.686649,"Raymond",K7PP,communications_transponder,,http://www.poi-factory.com/node/2227,,,,147.2,127.3,NFM,Public,AMATEUR,,,"offset=+"
KA7DNK,-123.730919,46.686649,"Raymond",KA7DNK,communications_transponder,,http://www.poi-factory.com/node/2227,,,,147.24,103.5,NFM,Public,AMATEUR,,,"offset=+"
N6MIV,-123.691788,38.909191,"Point",N6MIV,communications_transponder,,http://www.poi-factory.com/node/2227,,,,Arena,88.5,NFM,Public,AMATEUR,,,"offset=146.61MHz"
W7FEL,-123.6703,48.1504,"Striped",W7FEL,communications_transponder,,http://www.poi-factory.com/node/2227,,,,Peak,100,NFM,Public,AMATEUR,,,"offset=146.76MHz"
WA6HGH,-123.577332,38.802891,"Anchor",WA6HGH,communications_transponder,,http://www.poi-factory.com/node/2227,,,,Bay,103.5,NFM,Public,AMATEUR,,,"offset=147.825MHz"
KF6ZU,-123.481392,39.68795,"Laytonville",KF6ZU,communications_transponder,,http://www.poi-factory.com/node/2227,,,,146.655,103.5,NFM,Public,AMATEUR,,,"offset=-"
W7SRA,-123.43428,44.866119,"Falls",W7SRA,communications_transponder,,http://www.poi-factory.com/node/2227,,,,City,,NFM,Public,AMATEUR,,,"offset=147.02MHz"
WF7W,-123.429543,48.11787,"Port",WF7W,communications_transponder,,http://www.poi-factory.com/node/2227,,,,Angeles,100,NFM,Public,AMATEUR,,,"offset=145.13MHz"
K7FH,-123.39476,42.69577,"Wolf",K7FH,communications_transponder,,http://www.poi-factory.com/node/2227,,,,Creek,,NFM,Public,AMATEUR,,,"offset=146.94MHz"
KE6YJH,-123.377487,41.793579,"Happy",KE6YJH,communications_transponder,,http://www.poi-factory.com/node/2227,,,,Camp,100,NFM,Public,AMATEUR,,,"offset=146.91MHz"
W7UVH,-123.37,47.31,"South",W7UVH,communications_transponder,,http://www.poi-factory.com/node/2227,,,,Mtn,103.5,NFM,Public,AMATEUR,,,"offset=145.27MHz"
K7WWA,-123.353783,39.409328,"Willits",K7WWA,communications_transponder,,http://www.poi-factory.com/node/2227,,,,145.13,103.5,NFM,Public,AMATEUR,,,"offset=-"
K7WWA,-123.353783,39.409328,"Willits",K7WWA,communications_transponder,,http://www.poi-factory.com/node/2227,,,,147.12,103.5,NFM,Public,AMATEUR,,,"offset=+"
K7LIX,-123.326828,42.439468,"Grants",K7LIX,communications_transponder,,http://www.poi-factory.com/node/2227,,,,Pass,,NFM,Public,AMATEUR,,,"offset=146.64MHz"
WM7K,-123.326828,42.439468,"Grants",WM7K,communications_transponder,,http://www.poi-factory.com/node/2227,,,,Pass,,NFM,Public,AMATEUR,,,"offset=147.14MHz"
WA6OTP,-123.326828,42.439468,"Grants",WA6OTP,communications_transponder,,http://www.poi-factory.com/node/2227,,,,Pass,,NFM,Public,AMATEUR,,,"offset=147.22MHz"
W7QH,-123.26091,44.5644,"Corvallis",W7QH,communications_transponder,,http://www.poi-factory.com/node/2227,,,,146.78,,NFM,Public,AMATEUR,,,"offset=-"
WB6TCS,-123.247513,39.79351,"Covelo",WB6TCS,communications_transponder,,http://www.poi-factory.com/node/2227,,,,147.21,103.5,NFM,Public,AMATEUR,,,"offset=+"
N7PRJ,-123.216,46.48861,"Baw",N7PRJ,communications_transponder,,http://www.poi-factory.com/node/2227,,,,Faw,110.9,NFM,Public,AMATEUR,,,"offset=none"
WB6PER,-123.213341,38.897018,"Yorkville",WB6PER,communications_transponder,,http://www.poi-factory.com/node/2227,,,,146.085,88.5,NFM,Public,AMATEUR,,,"offset=+"
WA6RQX,-123.206429,39.150181,"Ukiah",WA6RQX,communications_transponder,,http://www.poi-factory.com/node/2227,,,,145.43,103.5,NFM,Public,AMATEUR,,,"offset=-"
W7RXJ,-123.196732,45.21003,"McMinnville",W7RXJ,communications_transponder,,http://www.poi-factory.com/node/2227,,,,146.64,100,NFM,Public,AMATEUR,,,"offset=-"
K7CPR,-123.1393,46.9726,"Capitol",K7CPR,communications_transponder,,http://www.poi-factory.com/node/2227,,,,Peak,100,NFM,Public,AMATEUR,,,"offset=145.47MHz"
KJ7IY,-123.110321,45.518368,"Forest",KJ7IY,communications_transponder,,http://www.poi-factory.com/node/2227,,,,Grove,107.2,NFM,Public,AMATEUR,,,"offset=145.27MHz"
K7RPT,-123.110321,45.518368,"Forest",K7RPT,communications_transponder,,http://www.poi-factory.com/node/2227,,,,Grove,,NFM,Public,AMATEUR,,,"offset=147.32MHz"
W7EXH,-123.103531,44.63681,"Albany",W7EXH,communications_transponder,,http://www.poi-factory.com/node/2227,,,,145.17,,NFM,Public,AMATEUR,,,"offset=-"
WA7BWT,-123.100899,43.301121,"Glide",WA7BWT,communications_transponder,,http://www.poi-factory.com/node/2227,,,,145.43,,NFM,Public,AMATEUR,,,"offset=-"
WA7BWT,-123.100899,43.301121,"Glide",WA7BWT,communications_transponder,,http://www.poi-factory.com/node/2227,,,,147.24,,NFM,Public,AMATEUR,,,"offset=+"
N7SK,-123.09964,47.215168,"Shelton",N7SK,communications_transponder,,http://www.poi-factory.com/node/2227,,,,146.72,103.5,NFM,Public,AMATEUR,,,"offset=-"
W7EXH,-123.086548,44.052219,"Eugene",W7EXH,communications_transponder,,http://www.poi-factory.com/node/2227,,,,145.31,,NFM,Public,AMATEUR,,,"offset=-"
K7LJ,-123.086548,44.052219,"Eugene",K7LJ,communications_transponder,,http://www.poi-factory.com/node/2227,,,,145.39,,NFM,Public,AMATEUR,,,"offset=-"
W7NQE,-123.086548,44.052219,"Eugene",W7NQE,communications_transponder,,http://www.poi-factory.com/node/2227,,,,146.72,,NFM,Public,AMATEUR,,,"offset=-"
WJ7S,-123.086548,44.052219,"Eugene",WJ7S,communications_transponder,,http://www.poi-factory.com/node/2227,,,,146.88,,NFM,Public,AMATEUR,,,"offset=-"
K7PFJ,-123.086548,44.052219,"Eugene",K7PFJ,communications_transponder,,http://www.poi-factory.com/node/2227,,,,147.26,100,NFM,Public,AMATEUR,,,"offset=+"
W7EXH,-123.086548,44.052219,"Eugene",W7EXH,communications_transponder,,http://www.poi-factory.com/node/2227,,,,147.36,,NFM,Public,AMATEUR,,,"offset=+"
W7ZQE,-123.057663,43.799068,"Cottage",W7ZQE,communications_transponder,,http://www.poi-factory.com/node/2227,,,,Grove,100,NFM,Public,AMATEUR,,,"offset=146.66MHz"
WA6M,-123.046692,38.333267,"Bodega",WA6M,communications_transponder,,http://www.poi-factory.com/node/2227,,,,Bay,88.5,NFM,Public,AMATEUR,,,"offset=146.67MHz"
W7EXH,-123.044,43.833,"Saginaw",W7EXH,communications_transponder,,http://www.poi-factory.com/node/2227,,,,146.76,,NFM,Public,AMATEUR,,,"offset=-"
WA7ABU,-123.034286,44.94141,"Salem",WA7ABU,communications_transponder,,http://www.poi-factory.com/node/2227,,,,145.29,,NFM,Public,AMATEUR,,,"offset=-"
W7SRA,-123.034286,44.94141,"Salem",W7SRA,communications_transponder,,http://www.poi-factory.com/node/2227,,,,145.33,,NFM,Public,AMATEUR,,,"offset=-"
W7HQ,-123.034286,44.94141,"Salem",W7HQ,communications_transponder,,http://www.poi-factory.com/node/2227,,,,145.35,,NFM,Public,AMATEUR,,,"offset=-"
W7SAA,-123.034286,44.94141,"Salem",W7SAA,communications_transponder,,http://www.poi-factory.com/node/2227,,,,146.625,179.9,NFM,Public,AMATEUR,,,"offset=-"
W7SRA,-123.034286,44.94141,"Salem",W7SRA,communications_transponder,,http://www.poi-factory.com/node/2227,,,,146.86,,NFM,Public,AMATEUR,,,"offset=-"
KI6B,-122.995209,38.502731,"Guerneville",KI6B,communications_transponder,,http://www.poi-factory.com/node/2227,,,,146.94,88.5,NFM,Public,AMATEUR,,,"offset=-"
W7EJ,-122.971565,45.30019,"Newberg",W7EJ,communications_transponder,,http://www.poi-factory.com/node/2227,,,,147.34,,NFM,Public,AMATEUR,,,"offset=+"
WA6BXN,-122.940651,40.729408,"Weaverville",WA6BXN,communications_transponder,,http://www.poi-factory.com/node/2227,,,,146.73,85.4,NFM,Public,AMATEUR,,,"offset=-"
W6HOR,-122.940651,40.729408,"Weaverville",W6HOR,communications_transponder,,http://www.poi-factory.com/node/2227,,,,146.925,85.4,NFM,Public,AMATEUR,,,"offset=-"
W7DG,-122.935066,46.138622,"Longview",W7DG,communications_transponder,,http://www.poi-factory.com/node/2227,,,,147.26,114.8,NFM,Public,AMATEUR,,,"offset=+"
KB7PSM,-122.92215,45.408161,"Scholls",KB7PSM,communications_transponder,,http://www.poi-factory.com/node/2227,,,,145.11,,NFM,Public,AMATEUR,,,"offset=-"
K7WWG,-122.92215,45.408161,"Scholls",K7WWG,communications_transponder,,http://www.poi-factory.com/node/2227,,,,146.9,,NFM,Public,AMATEUR,,,"offset=-"
WA6RHK,-122.915527,42.37645,"Central",WA6RHK,communications_transponder,,http://www.poi-factory.com/node/2227,,,,Point,,NFM,Public,AMATEUR,,,"offset=146.7MHz"
N7EHP,-122.907883,47.006901,"Tumwater",N7EHP,communications_transponder,,http://www.poi-factory.com/node/2227,,,,147.12,110.9,NFM,Public,AMATEUR,,,"offset=+"
W7PSE,-122.899231,47.03796,"Olympia",W7PSE,communications_transponder,,http://www.poi-factory.com/node/2227,,,,145.15,103.5,NFM,Public,AMATEUR,,,"offset=-"
NT7H,-122.899231,47.03796,"Olympia",NT7H,communications_transponder,,http://www.poi-factory.com/node/2227,,,,147.36,103.5,NFM,Public,AMATEUR,,,"offset=+"
K7RPT,-122.875778,42.328362,"Medford",K7RPT,communications_transponder,,http://www.poi-factory.com/node/2227,,,,147.02,,NFM,Public,AMATEUR,,,"offset=+"
WA6KLA,-122.867065,45.494537,"Aloha",WA6KLA,communications_transponder,,http://www.poi-factory.com/node/2227,,,,147.36,100,NFM,Public,AMATEUR,,,"offset=+"
W7EXH,-122.86084,43.719582,"Dorena",W7EXH,communications_transponder,,http://www.poi-factory.com/node/2227,,,,145.23,,NFM,Public,AMATEUR,,,"offset=-"
KF6CLH,-122.855415,38.100769,"Inverness",KF6CLH,communications_transponder,,http://www.poi-factory.com/node/2227,,,,145.17,88.5,NFM,Public,AMATEUR,,,"offset=-"
AC7SR,-122.845329,46.439968,"Toledo",AC7SR,communications_transponder,,http://www.poi-factory.com/node/2227,,,,145.43,110.9,NFM,Public,AMATEUR,,,"offset=-"
K7SKW,-122.831175,48.677577,"Mt",K7SKW,communications_transponder,,http://www.poi-factory.com/node/2227,,,,Constitution,103.5,NFM,Public,AMATEUR,,,"offset=146.74MHz"
NM7E,-122.826859,47.451389,"Belfair",NM7E,communications_transponder,,http://www.poi-factory.com/node/2227,,,,145.17,103.5,NFM,Public,AMATEUR,,,"offset=-"
K6KDK,-122.8228,38.402248,"Selma",K6KDK,communications_transponder,,http://www.poi-factory.com/node/2227,,,,145.43,100,NFM,Public,AMATEUR,,,"offset=-"
KE6JZ,-122.8228,38.402248,"Shaver",KE6JZ,communications_transponder,,http://www.poi-factory.com/node/2227,,,,Lake,141.3,NFM,Public,AMATEUR,,,"offset=146.82MHz"
WA6RHK,-122.817589,42.27602,"Phoenix",WA6RHK,communications_transponder,,http://www.poi-factory.com/node/2227,,,,147.2,136.5,NFM,Public,AMATEUR,,,"offset=+"
K7PF,-122.808434,47.561599,"Green",K7PF,communications_transponder,,http://www.poi-factory.com/node/2227,,,,Mtn,,NFM,Public,AMATEUR,,,"offset=146.88MHz"
K7PP,-122.806,46.1645,"Mt",K7PP,communications_transponder,,http://www.poi-factory.com/node/2227,,,,Brynion,91.5,NFM,Public,AMATEUR,,,"offset=147.2MHz"
KJ7IY,-122.802971,45.486839,"Beaverton",KJ7IY,communications_transponder,,http://www.poi-factory.com/node/2227,,,,145.43,107.2,NFM,Public,AMATEUR,,,"offset=-"
KJ7IY,-122.802971,45.486839,"Beaverton",KJ7IY,communications_transponder,,http://www.poi-factory.com/node/2227,,,,146.62,107.2,NFM,Public,AMATEUR,,,"offset=-"
K7AII,-122.781021,45.00592,"Silverton",K7AII,communications_transponder,,http://www.poi-factory.com/node/2227,,,,146.92,,NFM,Public,AMATEUR,,,"offset=-"
W7JCR,-122.760033,48.116638,"Port",W7JCR,communications_transponder,,http://www.poi-factory.com/node/2227,,,,Townsend,114.8,NFM,Public,AMATEUR,,,"offset=145.15MHz"
KD6LSO,-122.713997,38.440411,"Santa",KD6LSO,communications_transponder,,http://www.poi-factory.com/node/2227,,,,Rosa,88.5,NFM,Public,AMATEUR,,,"offset=146.73MHz"
KD6RC,-122.713997,38.440411,"Santa",KD6RC,communications_transponder,,http://www.poi-factory.com/node/2227,,,,Rosa,88.5,NFM,Public,AMATEUR,,,"offset=146.79MHz"
KE6EAQ,-122.713997,38.440411,"Santa",KE6EAQ,communications_transponder,,http://www.poi-factory.com/node/2227,,,,Rosa,88.5,NFM,Public,AMATEUR,,,"offset=146.835MHz"
N6NKB,-122.713997,38.440411,"Santa",N6NKB,communications_transponder,,http://www.poi-factory.com/node/2227,,,,Rosa,88.5,NFM,Public,AMATEUR,,,"offset=146.955MHz"
WA6COT,-122.713997,38.440411,"Santa",WA6COT,communications_transponder,,http://www.poi-factory.com/node/2227,,,,Ynez,131.8,NFM,Public,AMATEUR,,,"offset=none"
WA6RHK,-122.708138,42.19577,"Ashland",WA6RHK,communications_transponder,,http://www.poi-factory.com/node/2227,,,,147.16,136.5,NFM,Public,AMATEUR,,,"offset=+"
W7DK,-122.704,46.854,"Crawford",W7DK,communications_transponder,,http://www.poi-factory.com/node/2227,,,,Mtn,103.5,NFM,Public,AMATEUR,,,"offset=147.38MHz"
AB7Y,-122.693558,47.644489,"Silverdale",AB7Y,communications_transponder,,http://www.poi-factory.com/node/2227,,,,145.43,179.9,NFM,Public,AMATEUR,,,"offset=-"
K7RPT,-122.675346,45.52383,"Cedar",K7RPT,communications_transponder,,http://www.poi-factory.com/node/2227,,,,Mill,,NFM,Public,AMATEUR,,,"offset=147.38MHz"
K7LJ,-122.675346,45.52383,"Portland",K7LJ,communications_transponder,,http://www.poi-factory.com/node/2227,,,,145.23,,NFM,Public,AMATEUR,,,"offset=-"
K7LJ,-122.675346,45.52383,"Portland",K7LJ,communications_transponder,,http://www.poi-factory.com/node/2227,,,,145.39,,NFM,Public,AMATEUR,,,"offset=-"
KJ7IY,-122.675346,45.52383,"Portland",KJ7IY,communications_transponder,,http://www.poi-factory.com/node/2227,,,,146.8,107.2,NFM,Public,AMATEUR,,,"offset=-"
W7OTV,-122.675346,45.52383,"Portland",W7OTV,communications_transponder,,http://www.poi-factory.com/node/2227,,,,146.96,,NFM,Public,AMATEUR,,,"offset=-"
W7EXH,-122.675346,45.52383,"Portland",W7EXH,communications_transponder,,http://www.poi-factory.com/node/2227,,,,146.98,,NFM,Public,AMATEUR,,,"offset=-"
K7RPT,-122.675346,45.52383,"Portland",K7RPT,communications_transponder,,http://www.poi-factory.com/node/2227,,,,147.04,,NFM,Public,AMATEUR,,,"offset=+"
W7AVM,-122.640839,48.293198,"Oak",W7AVM,communications_transponder,,http://www.poi-factory.com/node/2227,,,,Harbor,127.3,NFM,Public,AMATEUR,,,"offset=146.86MHz"
WB6TMS,-122.634087,38.23222,"Petaluma",WB6TMS,communications_transponder,,http://www.poi-factory.com/node/2227,,,,146.91,88.5,NFM,Public,AMATEUR,,,"offset=-"
KE6YJH,-122.632492,41.73568,"Yreka",KE6YJH,communications_transponder,,http://www.poi-factory.com/node/2227,,,,146.79,100,NFM,Public,AMATEUR,,,"offset=-"
W5AUM,-122.630219,47.566528,"Brenham",W5AUM,communications_transponder,,http://www.poi-factory.com/node/2227,,,,145.39,103.5,NFM,Public,AMATEUR,,,"offset=-"
WA7NAN,-122.625742,48.453878,"Mt",WA7NAN,communications_transponder,,http://www.poi-factory.com/node/2227,,,,Erie,127.3,NFM,Public,AMATEUR,,,"offset=145.25MHz"
KA6JJW,-122.624939,38.958271,"Clear",KA6JJW,communications_transponder,,http://www.poi-factory.com/node/2227,,,,Lake,88.5,NFM,Public,AMATEUR,,,"offset=146.775MHz"
WD6EOP,-122.624939,38.958271,"Clear",WD6EOP,communications_transponder,,http://www.poi-factory.com/node/2227,,,,Lake,88.5,NFM,Public,AMATEUR,,,"offset=146.895MHz"
WD6EOP,-122.624939,38.958271,"Clear",WD6EOP,communications_transponder,,http://www.poi-factory.com/node/2227,,,,Lake,100,NFM,Public,AMATEUR,,,"offset=147.33MHz"
KF6BSC,-122.624939,38.958271,"Clear",KF6BSC,communications_transponder,,http://www.poi-factory.com/node/2227,,,,Lake,88.5,NFM,Public,AMATEUR,,,"offset=147.675MHz"
AC6VJ,-122.613823,38.75201,"Middletown",AC6VJ,communications_transponder,,http://www.poi-factory.com/node/2227,,,,145.39,88.5,NFM,Public,AMATEUR,,,"offset=-"
WB7QFD,-122.6,45.35,"Oregon",WB7QFD,communications_transponder,,http://www.poi-factory.com/node/2227,,,,City,,NFM,Public,AMATEUR,,,"offset=145.21MHz"
K6BW,-122.567741,38.107159,"Novato",K6BW,communications_transponder,,http://www.poi-factory.com/node/2227,,,,146.775,110.9,NFM,Public,AMATEUR,,,"offset=-"
K6GWE,-122.567741,38.107159,"Novato",K6GWE,communications_transponder,,http://www.poi-factory.com/node/2227,,,,147.33,203.5,NFM,Public,AMATEUR,,,"offset=+"
K7NP,-122.549072,47.235279,"University",K7NP,communications_transponder,,http://www.poi-factory.com/node/2227,,,,Place,114.8,NFM,Public,AMATEUR,,,"offset=145.29MHz"
K6GWE,-122.542267,37.906059,"Mill",K6GWE,communications_transponder,,http://www.poi-factory.com/node/2227,,,,Valley,179.9,NFM,Public,AMATEUR,,,"offset=146.7MHz"
W7ZLJ,-122.542,47.429,"Olalla",W7ZLJ,communications_transponder,,http://www.poi-factory.com/node/2227,,,,145.35,103.5,NFM,Public,AMATEUR,,,"offset=-"
K6BIQ,-122.538406,39.604729,"Elk",K6BIQ,communications_transponder,,http://www.poi-factory.com/node/2227,,,,Creek,100,NFM,Public,AMATEUR,,,"offset=147.105MHz"
K7OI,-122.524307,48.008221,"Freeland",K7OI,communications_transponder,,http://www.poi-factory.com/node/2227,,,,147.22,79.7,NFM,Public,AMATEUR,,,"offset=+"
W7NTF,-122.518,47.1722,"Lakewood",W7NTF,communications_transponder,,http://www.poi-factory.com/node/2227,,,,145.41,118.8,NFM,Public,AMATEUR,,,"offset=-"
KB7CNN,-122.517937,47.172199,"Tacoma",KB7CNN,communications_transponder,,http://www.poi-factory.com/node/2227,,,,146.64,103.5,NFM,Public,AMATEUR,,,"offset=-"
WA6TOW,-122.485779,37.613628,"Pacifica",WA6TOW,communications_transponder,,http://www.poi-factory.com/node/2227,,,,146.925,114.8,NFM,Public,AMATEUR,,,"offset=-"
K7SKW,-122.47,48.802,"King",K7SKW,communications_transponder,,http://www.poi-factory.com/node/2227,,,,Mtn,103.5,NFM,Public,AMATEUR,,,"offset=147.16MHz"
W7EXH,-122.45,43.733,"Oakridge",W7EXH,communications_transponder,,http://www.poi-factory.com/node/2227,,,,146.98,,NFM,Public,AMATEUR,,,"offset=-"
N7QHX,-122.442886,47.25293,"Tacoma",N7QHX,communications_transponder,,http://www.poi-factory.com/node/2227,,,,145.21,141.3,NFM,Public,AMATEUR,,,"offset=-"
K7HW,-122.442886,47.25293,"Tacoma",K7HW,communications_transponder,,http://www.poi-factory.com/node/2227,,,,146.94,103.5,NFM,Public,AMATEUR,,,"offset=-"
W7TED,-122.442886,47.25293,"Tacoma",W7TED,communications_transponder,,http://www.poi-factory.com/node/2227,,,,147.02,103.5,NFM,Public,AMATEUR,,,"offset=+"
W7DK,-122.442886,47.25293,"Tacoma",W7DK,communications_transponder,,http://www.poi-factory.com/node/2227,,,,147.28,103.5,NFM,Public,AMATEUR,,,"offset=+"
WB6ASD,-122.427277,37.46349,"Half",WB6ASD,communications_transponder,,http://www.poi-factory.com/node/2227,,,,Moon,114.8,NFM,Public,AMATEUR,,,"offset=none"
W6PW,-122.417068,37.7742,"San",W6PW,communications_transponder,,http://www.poi-factory.com/node/2227,,,,Francisco,114.8,NFM,Public,AMATEUR,,,"offset=145.15MHz"
W6TP,-122.417068,37.7742,"San",W6TP,communications_transponder,,http://www.poi-factory.com/node/2227,,,,Francisco,114.8,NFM,Public,AMATEUR,,,"offset=146.79MHz"
K6TW,-122.417068,37.7742,"San",K6TW,communications_transponder,,http://www.poi-factory.com/node/2227,,,,Francisco,67,NFM,Public,AMATEUR,,,"offset=146.97MHz"
WA6OXR,-122.417068,37.7742,"San",WA6OXR,communications_transponder,,http://www.poi-factory.com/node/2227,,,,Francisco,103.5,NFM,Public,AMATEUR,,,"offset=147.105MHz"
W6STA,-122.390419,40.586693,"Redding",W6STA,communications_transponder,,http://www.poi-factory.com/node/2227,,,,145.15,107.2,NFM,Public,AMATEUR,,,"offset=-"
NC6SV,-122.390419,40.586693,"Redding",NC6SV,communications_transponder,,http://www.poi-factory.com/node/2227,,,,146.64,88.5,NFM,Public,AMATEUR,,,"offset=-"
WR6TV,-122.390419,40.586693,"Redding",WR6TV,communications_transponder,,http://www.poi-factory.com/node/2227,,,,146.76,107.2,NFM,Public,AMATEUR,,,"offset=-"
K6NP,-122.390419,40.586693,"Redding",K6NP,communications_transponder,,http://www.poi-factory.com/node/2227,,,,147.3,146.2,NFM,Public,AMATEUR,,,"offset=+"
KB6HWZ,-122.390419,40.586693,"Redding",KB6HWZ,communications_transponder,,http://www.poi-factory.com/node/2227,,,,147.33,,NFM,Public,AMATEUR,,,"offset=+"
WA6HAM,-122.344131,37.962078,"San",WA6HAM,communications_transponder,,http://www.poi-factory.com/node/2227,,,,Ramon,107.2,NFM,Public,AMATEUR,,,"offset=145.41MHz"
K7PFJ,-122.340858,44.154289,"Blue",K7PFJ,communications_transponder,,http://www.poi-factory.com/node/2227,,,,River,,NFM,Public,AMATEUR,,,"offset=145.11MHz"
K7CHN,-122.315079,47.82114,"Lynnwood",K7CHN,communications_transponder,,http://www.poi-factory.com/node/2227,,,,146.78,103.5,NFM,Public,AMATEUR,,,"offset=-"
WW7MST,-122.31215,47.56283,"Seattle",WW7MST,communications_transponder,,http://www.poi-factory.com/node/2227,,,,146.9,103.5,NFM,Public,AMATEUR,,,"offset=-"
WA7FW,-122.31073,47.322369,"Federal",WA7FW,communications_transponder,,http://www.poi-factory.com/node/2227,,,,Way,103.5,NFM,Public,AMATEUR,,,"offset=146.76MHz"
WA7FW,-122.31073,47.322369,"Federal",WA7FW,communications_transponder,,http://www.poi-factory.com/node/2227,,,,Way,103.5,NFM,Public,AMATEUR,,,"offset=147.04MHz"
W7NTF,-122.3,47.04,"Graham",W7NTF,communications_transponder,,http://www.poi-factory.com/node/2227,,,,147.14,103.5,NFM,Public,AMATEUR,,,"offset=+"
W6BYS,-122.284821,38.297501,"Napa",W6BYS,communications_transponder,,http://www.poi-factory.com/node/2227,,,,146.82,103.5,NFM,Public,AMATEUR,,,"offset=-"
W6CO,-122.284821,38.297501,"Napa",W6CO,communications_transponder,,http://www.poi-factory.com/node/2227,,,,147.18,151.4,NFM,Public,AMATEUR,,,"offset=+"
WB6CKT,-122.273529,37.521118,"Belmont",WB6CKT,communications_transponder,,http://www.poi-factory.com/node/2227,,,,147.09,100,NFM,Public,AMATEUR,,,"offset=+"
K7IJ,-122.271912,37.872509,"Berkeley",K7IJ,communications_transponder,,http://www.poi-factory.com/node/2227,,,,145.29,131.8,NFM,Public,AMATEUR,,,"offset=-"
KE6YJH,-122.270844,41.20731,"Dunsmuir",KE6YJH,communications_transponder,,http://www.poi-factory.com/node/2227,,,,146.82,100,NFM,Public,AMATEUR,,,"offset=-"
W6BUR,-122.269852,37.803829,"Oakland",W6BUR,communications_transponder,,http://www.poi-factory.com/node/2227,,,,146.67,85.4,NFM,Public,AMATEUR,,,"offset=-"
W3EXW,-122.269852,37.803829,"Oakland",W3EXW,communications_transponder,,http://www.poi-factory.com/node/2227,,,,146.88,,NFM,Public,AMATEUR,,,"offset=-"
WB6TCS,-122.269852,37.803829,"Oakland",WB6TCS,communications_transponder,,http://www.poi-factory.com/node/2227,,,,147.21,100,NFM,Public,AMATEUR,,,"offset=+"
KR7IS,-122.267,45.4,"Sandy",KR7IS,communications_transponder,,http://www.poi-factory.com/node/2227,,,,145.47,107.2,NFM,Public,AMATEUR,,,"offset=-"
K6LI,-122.254898,38.104019,"Vallejo",K6LI,communications_transponder,,http://www.poi-factory.com/node/2227,,,,145.31,88.5,NFM,Public,AMATEUR,,,"offset=-"
N6LT,-122.251572,37.43071,"Woodside",N6LT,communications_transponder,,http://www.poi-factory.com/node/2227,,,,145.37,123,NFM,Public,AMATEUR,,,"offset=-"
KD6TPH,-122.236221,37.486111,"Redwood",KD6TPH,communications_transponder,,http://www.poi-factory.com/node/2227,,,,City,114.8,NFM,Public,AMATEUR,,,"offset=146.865MHz"
KF6KDD,-122.234627,40.17878,"Red",KF6KDD,communications_transponder,,http://www.poi-factory.com/node/2227,,,,Bluff,88.5,NFM,Public,AMATEUR,,,"offset=145.45MHz"
WR7JM,-122.222362,48.912023,"Sumas",WR7JM,communications_transponder,,http://www.poi-factory.com/node/2227,,,,Mtn,103.5,NFM,Public,AMATEUR,,,"offset=145.23MHz"
W7IAG,-122.221481,47.570908,"Mercer",W7IAG,communications_transponder,,http://www.poi-factory.com/node/2227,,,,Island,146.2,NFM,Public,AMATEUR,,,"offset=147.16MHz"
AA7UJ,-122.208443,47.682049,"Kirkland",AA7UJ,communications_transponder,,http://www.poi-factory.com/node/2227,,,,145.49,103.5,NFM,Public,AMATEUR,,,"offset=-"
KJ7YL,-122.201477,47.97794,"Everett",KJ7YL,communications_transponder,,http://www.poi-factory.com/node/2227,,,,145.39,103.5,NFM,Public,AMATEUR,,,"offset=-"
WA7LAW,-122.201477,47.97794,"Everett",WA7LAW,communications_transponder,,http://www.poi-factory.com/node/2227,,,,147.18,103.5,NFM,Public,AMATEUR,,,"offset=+"
W7DX,-122.198853,47.611938,"Bellevue",W7DX,communications_transponder,,http://www.poi-factory.com/node/2227,,,,147,103.5,NFM,Public,AMATEUR,,,"offset=-"
N6NMZ,-122.190781,39.275211,"Maxwell",N6NMZ,communications_transponder,,http://www.poi-factory.com/node/2227,,,,147.045,156.7,NFM,Public,AMATEUR,,,"offset=+"
K7HW,-122.179337,46.716919,"Mineral",K7HW,communications_transponder,,http://www.poi-factory.com/node/2227,,,,146.68,103.5,NFM,Public,AMATEUR,,,"offset=-"
WA6HAM,-122.178436,37.876629,"Orinda",WA6HAM,communications_transponder,,http://www.poi-factory.com/node/2227,,,,145.49,107.2,NFM,Public,AMATEUR,,,"offset=-"
WA6AFT,-122.178436,37.876629,"Orinda",WA6AFT,communications_transponder,,http://www.poi-factory.com/node/2227,,,,146.85,114.8,NFM,Public,AMATEUR,,,"offset=-"
K6RFK,-122.161896,47.753708,"Woodinville",K6RFK,communications_transponder,,http://www.poi-factory.com/node/2227,,,,147.34,,NFM,Public,AMATEUR,,,"offset=+"
N7UQA,-122.159063,48.594693,"Lyman",N7UQA,communications_transponder,,http://www.poi-factory.com/node/2227,,,,Hill,127.3,NFM,Public,AMATEUR,,,"offset=145.19MHz"
KD6EKH,-122.155762,37.724979,"San",KD6EKH,communications_transponder,,http://www.poi-factory.com/node/2227,,,,Luis,127.3,NFM,Public,AMATEUR,,,"offset=none"
N6NFI,-122.141434,37.442051,"Palo",N6NFI,communications_transponder,,http://www.poi-factory.com/node/2227,,,,Alto,100,NFM,Public,AMATEUR,,,"offset=145.23MHz"
WW6HP,-122.141434,37.442051,"Palo",WW6HP,communications_transponder,,http://www.poi-factory.com/node/2227,,,,Alto,151.4,NFM,Public,AMATEUR,,,"offset=147.315MHz"
W6TI,-122.141434,37.442051,"Palo",W6TI,communications_transponder,,http://www.poi-factory.com/node/2227,,,,Alto,110.9,NFM,Public,AMATEUR,,,"offset=147.36MHz"
KG6AKQ,-122.124252,37.681149,"San",KG6AKQ,communications_transponder,,http://www.poi-factory.com/node/2227,,,,Luis,127.3,NFM,Public,AMATEUR,,,"offset=none"
KC7IYE,-122.120529,47.673828,"Redmond",KC7IYE,communications_transponder,,http://www.poi-factory.com/node/2227,,,,145.31,103.5,NFM,Public,AMATEUR,,,"offset=-"
K6TZ,-122.116615,37.885418,"LaVigia",K6TZ,communications_transponder,,http://www.poi-factory.com/node/2227,,,,Hill,131.8,NFM,Public,AMATEUR,,,"offset=146.79MHz"
K7MMI,-122.098,47.54,"Cougar",K7MMI,communications_transponder,,http://www.poi-factory.com/node/2227,,,,Mtn,100,NFM,Public,AMATEUR,,,"offset=146.98MHz"
W7WWI,-122.098,47.54,"Cougar",W7WWI,communications_transponder,,http://www.poi-factory.com/node/2227,,,,Mtn,103.5,NFM,Public,AMATEUR,,,"offset=147.08MHz"
WR6AOK,-122.085114,37.08923,"Ben",WR6AOK,communications_transponder,,http://www.poi-factory.com/node/2227,,,,Lomond,94.8,NFM,Public,AMATEUR,,,"offset=147.12MHz"
W6ASH,-122.081451,37.385349,"Mountain",W6ASH,communications_transponder,,http://www.poi-factory.com/node/2227,,,,View,100,NFM,Public,AMATEUR,,,"offset=145.27MHz"
K6EAG,-122.080841,37.668751,"Hayward",K6EAG,communications_transponder,,http://www.poi-factory.com/node/2227,,,,145.13,127.3,NFM,Public,AMATEUR,,,"offset=-"
KK6AN,-122.080841,37.668751,"Hayward",KK6AN,communications_transponder,,http://www.poi-factory.com/node/2227,,,,147.975,156.7,NFM,Public,AMATEUR,,,"offset=-"
W6WLS,-122.071693,37.051128,"Felton",W6WLS,communications_transponder,,http://www.poi-factory.com/node/2227,,,,147.18,94.8,NFM,Public,AMATEUR,,,"offset=+"
NA6MF,-122.054382,37.415329,"Moffett",NA6MF,communications_transponder,,http://www.poi-factory.com/node/2227,,,,Field,123,NFM,Public,AMATEUR,,,"offset=145.25MHz"
K7LED,-122.047415,47.504255,"Squak",K7LED,communications_transponder,,http://www.poi-factory.com/node/2227,,,,Mtn,103.5,NFM,Public,AMATEUR,,,"offset=146.82MHz"
K6GL,-122.035019,37.369019,"Sunnyvale",K6GL,communications_transponder,,http://www.poi-factory.com/node/2227,,,,145.17,94.8,NFM,Public,AMATEUR,,,"offset=-"
K6GRC,-122.032303,37.32304,"Cupertino",K6GRC,communications_transponder,,http://www.poi-factory.com/node/2227,,,,145.31,127.3,NFM,Public,AMATEUR,,,"offset=-"
K6FUZ,-122.032303,37.32304,"Cupertino",K6FUZ,communications_transponder,,http://www.poi-factory.com/node/2227,,,,147.105,77,NFM,Public,AMATEUR,,,"offset=+"
K6POU,-122.029961,37.97839,"Concord",K6POU,communications_transponder,,http://www.poi-factory.com/node/2227,,,,145.33,100,NFM,Public,AMATEUR,,,"offset=-"
K6CHV,-122.029961,37.97839,"Concord",K6CHV,communications_transponder,,http://www.poi-factory.com/node/2227,,,,146.895,123,NFM,Public,AMATEUR,,,"offset=-"
W6CX,-122.029961,37.97839,"Concord",W6CX,communications_transponder,,http://www.poi-factory.com/node/2227,,,,147.06,100,NFM,Public,AMATEUR,,,"offset=+"
WA6HAM,-122.029961,37.97839,"Concord",WA6HAM,communications_transponder,,http://www.poi-factory.com/node/2227,,,,147.735,107.2,NFM,Public,AMATEUR,,,"offset=-"
W6JWS,-122.02832,36.973038,"Santa",W6JWS,communications_transponder,,http://www.poi-factory.com/node/2227,,,,Cruz,94.8,NFM,Public,AMATEUR,,,"offset=146.745MHz"
K6BJ,-122.02832,36.973038,"Santa",K6BJ,communications_transponder,,http://www.poi-factory.com/node/2227,,,,Cruz,94.8,NFM,Public,AMATEUR,,,"offset=146.79MHz"
AE6KE,-122.02832,36.973038,"Santa",AE6KE,communications_transponder,,http://www.poi-factory.com/node/2227,,,,Cruz,94.8,NFM,Public,AMATEUR,,,"offset=146.835MHz"
K6MX,-122.02832,36.973038,"Santa",K6MX,communications_transponder,,http://www.poi-factory.com/node/2227,,,,Maria,103.5,NFM,Public,AMATEUR,,,"offset=145.14MHz"
N6UE,-122.02832,36.973038,"Santa",N6UE,communications_transponder,,http://www.poi-factory.com/node/2227,,,,Maria,,NFM,Public,AMATEUR,,,"offset=146.64MHz"
N6OFR,-122.022034,37.263489,"Sea",N6OFR,communications_transponder,,http://www.poi-factory.com/node/2227,,,,Ranch,88.5,NFM,Public,AMATEUR,,,"offset=147.945MHz"
W6SON,-122.022034,37.263489,"Sebastopol",W6SON,communications_transponder,,http://www.poi-factory.com/node/2227,,,,146.985,88.5,NFM,Public,AMATEUR,,,"offset=-"
KM6EF,-122.02095,37.59782,"Union",KM6EF,communications_transponder,,http://www.poi-factory.com/node/2227,,,,City,123,NFM,Public,AMATEUR,,,"offset=146.61MHz"
K6SRM,-121.997856,37.82169,"Danville",K6SRM,communications_transponder,,http://www.poi-factory.com/node/2227,,,,146.355,100,NFM,Public,AMATEUR,,,"offset=+"
N6OXR,-121.987259,37.54987,"Fremont",N6OXR,communications_transponder,,http://www.poi-factory.com/node/2227,,,,146.94,123,NFM,Public,AMATEUR,,,"offset=-"
WA6PWW,-121.987259,37.54987,"Fremont",WA6PWW,communications_transponder,,http://www.poi-factory.com/node/2227,,,,147.015,,NFM,Public,AMATEUR,,,"offset=+"
WD6BUS,-121.986397,38.356659,"Vacaville",WD6BUS,communications_transponder,,http://www.poi-factory.com/node/2227,,,,145.47,127.3,NFM,Public,AMATEUR,,,"offset=-"
WB4YJT,-121.986397,38.356659,"Vacaville",WB4YJT,communications_transponder,,http://www.poi-factory.com/node/2227,,,,146.625,123,NFM,Public,AMATEUR,,,"offset=-"
K6MVR,-121.986397,38.356659,"Vacaville",K6MVR,communications_transponder,,http://www.poi-factory.com/node/2227,,,,147,136.5,NFM,Public,AMATEUR,,,"offset=-"
N6ICW,-121.986397,38.356659,"Vacaville",N6ICW,communications_transponder,,http://www.poi-factory.com/node/2227,,,,147.195,123,NFM,Public,AMATEUR,,,"offset=+"
W6AEX,-121.986397,38.356659,"Vacaville",W6AEX,communications_transponder,,http://www.poi-factory.com/node/2227,,,,147.27,77,NFM,Public,AMATEUR,,,"offset=+"
W6LAH,-121.980904,37.229019,"Los",W6LAH,communications_transponder,,http://www.poi-factory.com/node/2227,,,,Altos,110.9,NFM,Public,AMATEUR,,,"offset=none"
K6FB,-121.980904,37.229019,"Los",K6FB,communications_transponder,,http://www.poi-factory.com/node/2227,,,,Gatos,100,NFM,Public,AMATEUR,,,"offset=145.45MHz"
W6RFU,-121.977043,37.77998,"Santa",W6RFU,communications_transponder,,http://www.poi-factory.com/node/2227,,,,Barbara,136.5,NFM,Public,AMATEUR,,,"offset=145.48MHz"
K7NWS,-121.95,47.49,"Tiger",K7NWS,communications_transponder,,http://www.poi-factory.com/node/2227,,,,Mtn,179.9,NFM,Public,AMATEUR,,,"offset=none"
K7SKW,-121.932,48.822,"Lookout",K7SKW,communications_transponder,,http://www.poi-factory.com/node/2227,,,,Mtn,127.3,NFM,Public,AMATEUR,,,"offset=146.74MHz"
N6QDY,-121.905617,37.426357,"Milpitas",N6QDY,communications_transponder,,http://www.poi-factory.com/node/2227,,,,147.945,77,NFM,Public,AMATEUR,,,"offset=-"
K6LY,-121.893646,36.598969,"Monterey",K6LY,communications_transponder,,http://www.poi-factory.com/node/2227,,,,146.97,94.8,NFM,Public,AMATEUR,,,"offset=-"
WA2IBM,-121.892181,37.340382,"San",WA2IBM,communications_transponder,,http://www.poi-factory.com/node/2227,,,,Jose,151.4,NFM,Public,AMATEUR,,,"offset=145.19MHz"
W6DYL,-121.892181,37.340382,"San",W6DYL,communications_transponder,,http://www.poi-factory.com/node/2227,,,,Jose,94.8,NFM,Public,AMATEUR,,,"offset=145.39MHz"
AA6BT,-121.892181,37.340382,"San",AA6BT,communications_transponder,,http://www.poi-factory.com/node/2227,,,,Jose,100,NFM,Public,AMATEUR,,,"offset=146.115MHz"
KC6LLI,-121.892181,37.340382,"San",KC6LLI,communications_transponder,,http://www.poi-factory.com/node/2227,,,,Jose,103.5,NFM,Public,AMATEUR,,,"offset=146.205MHz"
KD6AOG,-121.892181,37.340382,"San",KD6AOG,communications_transponder,,http://www.poi-factory.com/node/2227,,,,Jose,127.3,NFM,Public,AMATEUR,,,"offset=146.355MHz"
WR6ABD,-121.892181,37.340382,"San",WR6ABD,communications_transponder,,http://www.poi-factory.com/node/2227,,,,Jose,162.2,NFM,Public,AMATEUR,,,"offset=146.64MHz"
WB6OQS,-121.892181,37.340382,"San",WB6OQS,communications_transponder,,http://www.poi-factory.com/node/2227,,,,Jose,151.4,NFM,Public,AMATEUR,,,"offset=146.76MHz"
W6UU,-121.892181,37.340382,"San",W6UU,communications_transponder,,http://www.poi-factory.com/node/2227,,,,Jose,114.8,NFM,Public,AMATEUR,,,"offset=146.985MHz"
KB6FEC,-121.892181,37.340382,"San",KB6FEC,communications_transponder,,http://www.poi-factory.com/node/2227,,,,Jose,100,NFM,Public,AMATEUR,,,"offset=147.165MHz"
KF6FWO,-121.892181,37.340382,"San",KF6FWO,communications_transponder,,http://www.poi-factory.com/node/2227,,,,Jose,103.5,NFM,Public,AMATEUR,,,"offset=147.285MHz"
W6PIY,-121.892181,37.340382,"San",W6PIY,communications_transponder,,http://www.poi-factory.com/node/2227,,,,Jose,151.4,NFM,Public,AMATEUR,,,"offset=147.39MHz"
W6TED,-121.892181,37.340382,"San",W6TED,communications_transponder,,http://www.poi-factory.com/node/2227,,,,Jose,162.2,NFM,Public,AMATEUR,,,"offset=147.675MHz"
WA6TEM,-121.892181,37.340382,"San",WA6TEM,communications_transponder,,http://www.poi-factory.com/node/2227,,,,Jose,100,NFM,Public,AMATEUR,,,"offset=147.855MHz"
N6DOD,-121.892181,37.340382,"San",N6DOD,communications_transponder,,http://www.poi-factory.com/node/2227,,,,Leandro,156.7,NFM,Public,AMATEUR,,,"offset=147.03MHz"
W6RGG,-121.892181,37.340382,"San",W6RGG,communications_transponder,,http://www.poi-factory.com/node/2227,,,,Leandro,,NFM,Public,AMATEUR,,,"offset=147.24MHz"
N6HZG,-121.873917,37.660831,"Pleasanton",N6HZG,communications_transponder,,http://www.poi-factory.com/node/2227,,,,147.045,94.8,NFM,Public,AMATEUR,,,"offset=+"
KI6ND,-121.837051,39.728931,"Chico",KI6ND,communications_transponder,,http://www.poi-factory.com/node/2227,,,,145.31,110.9,NFM,Public,AMATEUR,,,"offset=-"
W6RHC,-121.837051,39.728931,"Chico",W6RHC,communications_transponder,,http://www.poi-factory.com/node/2227,,,,146.85,110.9,NFM,Public,AMATEUR,,,"offset=-"
W6ECE,-121.837051,39.728931,"Chico",W6ECE,communications_transponder,,http://www.poi-factory.com/node/2227,,,,146.94,100,NFM,Public,AMATEUR,,,"offset=-"
K6NP,-121.837051,39.728931,"Chico",K6NP,communications_transponder,,http://www.poi-factory.com/node/2227,,,,147.3,141.3,NFM,Public,AMATEUR,,,"offset=+"
N6TZG,-121.837051,39.728931,"Chico",N6TZG,communications_transponder,,http://www.poi-factory.com/node/2227,,,,147.975,110.9,NFM,Public,AMATEUR,,,"offset=-"
N7HDH,-121.803771,47.451234,"Rattlesnake",N7HDH,communications_transponder,,http://www.poi-factory.com/node/2227,,,,Mtn,103.5,NFM,Public,AMATEUR,,,"offset=145.11MHz"
N7MO,-121.803771,47.451234,"Rattlesnake",N7MO,communications_transponder,,http://www.poi-factory.com/node/2227,,,,Mtn,,NFM,Public,AMATEUR,,,"offset=147.18MHz"
WB7VYA,-121.796,48.058,"Mt",WB7VYA,communications_transponder,,http://www.poi-factory.com/node/2227,,,,Pilchuck,123,NFM,Public,AMATEUR,,,"offset=146.92MHz"
W7AAO,-121.795835,47.203941,"Grass",W7AAO,communications_transponder,,http://www.poi-factory.com/node/2227,,,,Mtn,136.5,NFM,Public,AMATEUR,,,"offset=145.37MHz"
W7BXD,-121.780952,42.224911,"Klamath",W7BXD,communications_transponder,,http://www.poi-factory.com/node/2227,,,,Falls,,NFM,Public,AMATEUR,,,"offset=146.61MHz"
K7DXV,-121.780952,42.224911,"Klamath",K7DXV,communications_transponder,,http://www.poi-factory.com/node/2227,,,,Falls,131.8,NFM,Public,AMATEUR,,,"offset=146.72MHz"
K7DXV,-121.780952,42.224911,"Klamath",K7DXV,communications_transponder,,http://www.poi-factory.com/node/2227,,,,Falls,100,NFM,Public,AMATEUR,,,"offset=146.74MHz"
K7JIX,-121.780952,42.224911,"Klamath",K7JIX,communications_transponder,,http://www.poi-factory.com/node/2227,,,,Falls,,NFM,Public,AMATEUR,,,"offset=146.85MHz"
KE6YUV,-121.770653,38.678669,"Woodland",KE6YUV,communications_transponder,,http://www.poi-factory.com/node/2227,,,,146.97,123,NFM,Public,AMATEUR,,,"offset=-"
AB6CR,-121.765732,37.681561,"Livermore",AB6CR,communications_transponder,,http://www.poi-factory.com/node/2227,,,,145.35,100,NFM,Public,AMATEUR,,,"offset=-"
AE6D,-121.765732,37.681561,"Livermore",AE6D,communications_transponder,,http://www.poi-factory.com/node/2227,,,,145.43,100,NFM,Public,AMATEUR,,,"offset=-"
WA6YHJ,-121.765732,37.681561,"Livermore",WA6YHJ,communications_transponder,,http://www.poi-factory.com/node/2227,,,,146.775,100,NFM,Public,AMATEUR,,,"offset=-"
KQ6DI,-121.765732,37.681561,"Livermore",KQ6DI,communications_transponder,,http://www.poi-factory.com/node/2227,,,,147.12,100,NFM,Public,AMATEUR,,,"offset=+"
K7RPT,-121.7568,45.3041,"Timberline",K7RPT,communications_transponder,,http://www.poi-factory.com/node/2227,,,,147.12,,NFM,Public,AMATEUR,,,"offset=+"
W6UNI,-121.755249,36.910141,"Watsonville",W6UNI,communications_transponder,,http://www.poi-factory.com/node/2227,,,,145.17,131.8,NFM,Public,AMATEUR,,,"offset=-"
W6DNC,-121.755249,36.910141,"Watsonville",W6DNC,communications_transponder,,http://www.poi-factory.com/node/2227,,,,145.33,123,NFM,Public,AMATEUR,,,"offset=-"
NS6G,-121.755249,36.910141,"Watsonville",NS6G,communications_transponder,,http://www.poi-factory.com/node/2227,,,,146.7,94.8,NFM,Public,AMATEUR,,,"offset=-"
KB6MET,-121.755249,36.910141,"Watsonville",KB6MET,communications_transponder,,http://www.poi-factory.com/node/2227,,,,146.775,123,NFM,Public,AMATEUR,,,"offset=-"
K6RMW,-121.755249,36.910141,"Watsonville",K6RMW,communications_transponder,,http://www.poi-factory.com/node/2227,,,,147,94.8,NFM,Public,AMATEUR,,,"offset=+"
KI6EH,-121.755249,36.910141,"Watsonville",KI6EH,communications_transponder,,http://www.poi-factory.com/node/2227,,,,147.945,94.8,NFM,Public,AMATEUR,,,"offset=-"
WD6AXM,-121.751442,39.159859,"Sutter",WD6AXM,communications_transponder,,http://www.poi-factory.com/node/2227,,,,146.085,127.3,NFM,Public,AMATEUR,,,"offset=+"
W6QWN,-121.658394,40.882729,"Burney",W6QWN,communications_transponder,,http://www.poi-factory.com/node/2227,,,,145.35,107.2,NFM,Public,AMATEUR,,,"offset=-"
KI6WG,-121.658394,40.882729,"Burney",KI6WG,communications_transponder,,http://www.poi-factory.com/node/2227,,,,147.03,103.5,NFM,Public,AMATEUR,,,"offset=+"
W6TAR,-121.654572,36.677689,"Salinas",W6TAR,communications_transponder,,http://www.poi-factory.com/node/2227,,,,145.43,94.8,NFM,Public,AMATEUR,,,"offset=-"
K6JE,-121.654572,36.677689,"Salinas",K6JE,communications_transponder,,http://www.poi-factory.com/node/2227,,,,145.47,94.8,NFM,Public,AMATEUR,,,"offset=-"
KC6UDC,-121.654572,36.677689,"Salinas",KC6UDC,communications_transponder,,http://www.poi-factory.com/node/2227,,,,146.085,100,NFM,Public,AMATEUR,,,"offset=+"
W6GGF,-121.653633,37.131001,"Morgan",W6GGF,communications_transponder,,http://www.poi-factory.com/node/2227,,,,Hill,100,NFM,Public,AMATEUR,,,"offset=147.825MHz"
W6OPI,-121.641083,36.88876,"Aroma",W6OPI,communications_transponder,,http://www.poi-factory.com/node/2227,,,,146.91,94.8,NFM,Public,AMATEUR,,,"offset=-"
WD6EZC,-121.608398,37.083569,"San",WD6EZC,communications_transponder,,http://www.poi-factory.com/node/2227,,,,Pablo,82.5,NFM,Public,AMATEUR,,,"offset=145.11MHz"
KK7TT,-121.54747,44.29044,"Sisters",KK7TT,communications_transponder,,http://www.poi-factory.com/node/2227,,,,146.9,,NFM,Public,AMATEUR,,,"offset=-"
W7EXH,-121.500877,43.6703,"Chemult",W7EXH,communications_transponder,,http://www.poi-factory.com/node/2227,,,,147.14,,NFM,Public,AMATEUR,,,"offset=+"
W6VIP,-121.500877,43.6703,"La",W6VIP,communications_transponder,,http://www.poi-factory.com/node/2227,,,,Pine,,NFM,Public,AMATEUR,,,"offset=145.47MHz"
K6IS,-121.493042,38.58136,"Sacramento",K6IS,communications_transponder,,http://www.poi-factory.com/node/2227,,,,145.19,162.2,NFM,Public,AMATEUR,,,"offset=-"
KC6MHT,-121.493042,38.58136,"Sacramento",KC6MHT,communications_transponder,,http://www.poi-factory.com/node/2227,,,,145.23,162.2,NFM,Public,AMATEUR,,,"offset=-"
N6NA,-121.493042,38.58136,"Sacramento",N6NA,communications_transponder,,http://www.poi-factory.com/node/2227,,,,145.25,162.2,NFM,Public,AMATEUR,,,"offset=-"
KG6TXA,-121.493042,38.58136,"Sacramento",KG6TXA,communications_transponder,,http://www.poi-factory.com/node/2227,,,,146.82,127.3,NFM,Public,AMATEUR,,,"offset=-"
W6AK,-121.493042,38.58136,"Sacramento",W6AK,communications_transponder,,http://www.poi-factory.com/node/2227,,,,146.91,100,NFM,Public,AMATEUR,,,"offset=-"
AB6OP,-121.493042,38.58136,"Sacramento",AB6OP,communications_transponder,,http://www.poi-factory.com/node/2227,,,,146.985,94.8,NFM,Public,AMATEUR,,,"offset=-"
KF6SQL,-121.493042,38.58136,"Sacramento",KF6SQL,communications_transponder,,http://www.poi-factory.com/node/2227,,,,147.12,162.2,NFM,Public,AMATEUR,,,"offset=+"
K6NP,-121.493042,38.58136,"Sacramento",K6NP,communications_transponder,,http://www.poi-factory.com/node/2227,,,,147.3,136.5,NFM,Public,AMATEUR,,,"offset=+"
WA7SAR,-121.4812,46.117,"King",WA7SAR,communications_transponder,,http://www.poi-factory.com/node/2227,,,,Mtn,,NFM,Public,AMATEUR,,,"offset=147.08MHz"
N6FQ,-121.438141,41.00465,"Fallbrook",N6FQ,communications_transponder,,http://www.poi-factory.com/node/2227,,,,146.175,107.2,NFM,Public,AMATEUR,,,"offset=+"
WA7TYD,-121.433,45.883,"Sun",WA7TYD,communications_transponder,,http://www.poi-factory.com/node/2227,,,,River,162.2,NFM,Public,AMATEUR,,,"offset=146.64MHz"
W6OA,-121.423798,37.738609,"Tracy",W6OA,communications_transponder,,http://www.poi-factory.com/node/2227,,,,146.655,100,NFM,Public,AMATEUR,,,"offset=-"
WB7VMA,-121.405319,42.199902,"Bonanza",WB7VMA,communications_transponder,,http://www.poi-factory.com/node/2227,,,,145.49,,NFM,Public,AMATEUR,,,"offset=-"
N7HDH,-121.36,47.7095,"Skykomish",N7HDH,communications_transponder,,http://www.poi-factory.com/node/2227,,,,145.11,123,NFM,Public,AMATEUR,,,"offset=-"
NW6C,-121.353989,41.730694,"Mammoth",NW6C,communications_transponder,,http://www.poi-factory.com/node/2227,,,,146.73,100,NFM,Public,AMATEUR,,,"offset=-"
KK7TT,-121.314217,44.058861,"Bend",KK7TT,communications_transponder,,http://www.poi-factory.com/node/2227,,,,145.45,,NFM,Public,AMATEUR,,,"offset=-"
K7ZM,-121.314217,44.058861,"Bend",K7ZM,communications_transponder,,http://www.poi-factory.com/node/2227,,,,145.49,,NFM,Public,AMATEUR,,,"offset=-"
WA7TPD,-121.314217,44.058861,"Bend",WA7TPD,communications_transponder,,http://www.poi-factory.com/node/2227,,,,146.94,,NFM,Public,AMATEUR,,,"offset=-"
K7RPT,-121.314217,44.058861,"Bend",K7RPT,communications_transponder,,http://www.poi-factory.com/node/2227,,,,147.04,,NFM,Public,AMATEUR,,,"offset=+"
WA6SEK,-121.290108,37.957829,"Stockton",WA6SEK,communications_transponder,,http://www.poi-factory.com/node/2227,,,,145.21,100,NFM,Public,AMATEUR,,,"offset=-"
KN6KO,-121.290108,37.957829,"Stockton",KN6KO,communications_transponder,,http://www.poi-factory.com/node/2227,,,,147.105,67,NFM,Public,AMATEUR,,,"offset=+"
N6JSL,-121.286911,38.751881,"Roseville",N6JSL,communications_transponder,,http://www.poi-factory.com/node/2227,,,,146.76,136.5,NFM,Public,AMATEUR,,,"offset=-"
KD6PDD,-121.286911,38.751881,"Roseville",KD6PDD,communications_transponder,,http://www.poi-factory.com/node/2227,,,,147.315,162.2,NFM,Public,AMATEUR,,,"offset=+"
WB6ASU,-121.272072,38.126511,"Lodi",WB6ASU,communications_transponder,,http://www.poi-factory.com/node/2227,,,,147.09,114.8,NFM,Public,AMATEUR,,,"offset=+"
KF6CCP,-121.229218,40.306271,"Chester",KF6CCP,communications_transponder,,http://www.poi-factory.com/node/2227,,,,145.37,123,NFM,Public,AMATEUR,,,"offset=-"
KF6GDM,-121.215462,37.797421,"Manteca",KF6GDM,communications_transponder,,http://www.poi-factory.com/node/2227,,,,146.985,100,NFM,Public,AMATEUR,,,"offset=-"
KF6VXF,-121.174217,38.677837,"Folsom",KF6VXF,communications_transponder,,http://www.poi-factory.com/node/2227,,,,146.61,136.5,NFM,Public,AMATEUR,,,"offset=-"
WA6VPL,-121.12368,36.211788,"King",WA6VPL,communications_transponder,,http://www.poi-factory.com/node/2227,,,,City,100,NFM,Public,AMATEUR,,,"offset=145.37MHz"
KC6TOX,-121.08036,35.56414,"Cambria",KC6TOX,communications_transponder,,http://www.poi-factory.com/node/2227,,,,147.27,127.3,NFM,Public,AMATEUR,,,"offset=+"
W6SAR,-121.075951,38.896889,"Auburn",W6SAR,communications_transponder,,http://www.poi-factory.com/node/2227,,,,145.27,156.7,NFM,Public,AMATEUR,,,"offset=-"
K6ARR,-121.075951,38.896889,"Auburn",K6ARR,communications_transponder,,http://www.poi-factory.com/node/2227,,,,145.43,162.2,NFM,Public,AMATEUR,,,"offset=-"
KI6TE,-121.075951,38.896889,"Auburn",KI6TE,communications_transponder,,http://www.poi-factory.com/node/2227,,,,146.355,94.8,NFM,Public,AMATEUR,,,"offset=+"
WA6YBN,-121.072289,38.691139,"El",WA6YBN,communications_transponder,,http://www.poi-factory.com/node/2227,,,,Paso,107.2,NFM,Public,AMATEUR,,,"offset=none"
W6IY,-121.072289,38.691139,"El",W6IY,communications_transponder,,http://www.poi-factory.com/node/2227,,,,Paso,107.2,NFM,Public,AMATEUR,,,"offset=none"
N6KOD,-121.060402,39.219501,"Grass",N6KOD,communications_transponder,,http://www.poi-factory.com/node/2227,,,,Valley,151.4,NFM,Public,AMATEUR,,,"offset=146.115MHz"
WB4YJT,-121.060402,39.219501,"Grass",WB4YJT,communications_transponder,,http://www.poi-factory.com/node/2227,,,,Valley,151.4,NFM,Public,AMATEUR,,,"offset=146.625MHz"
W6DD,-121.060402,39.219501,"Grass",W6DD,communications_transponder,,http://www.poi-factory.com/node/2227,,,,Valley,151.4,NFM,Public,AMATEUR,,,"offset=147.015MHz"
W6DD,-121.060402,39.219501,"Grass",W6DD,communications_transponder,,http://www.poi-factory.com/node/2227,,,,Valley,151.4,NFM,Public,AMATEUR,,,"offset=147.285MHz"
WD6EJF,-120.994751,37.639099,"Modesto",WD6EJF,communications_transponder,,http://www.poi-factory.com/node/2227,,,,145.11,136.5,NFM,Public,AMATEUR,,,"offset=-"
WD6EJF,-120.994751,37.639099,"Modesto",WD6EJF,communications_transponder,,http://www.poi-factory.com/node/2227,,,,145.39,136.5,NFM,Public,AMATEUR,,,"offset=-"
WA6OYF,-120.994751,37.639099,"Modesto",WA6OYF,communications_transponder,,http://www.poi-factory.com/node/2227,,,,146.355,156.7,NFM,Public,AMATEUR,,,"offset=+"
WA6TCG,-120.994751,37.639099,"Modesto",WA6TCG,communications_transponder,,http://www.poi-factory.com/node/2227,,,,146.88,94.8,NFM,Public,AMATEUR,,,"offset=-"
N6RDE,-120.987839,38.669209,"Cameron",N6RDE,communications_transponder,,http://www.poi-factory.com/node/2227,,,,Park,77,NFM,Public,AMATEUR,,,"offset=147.03MHz"
KR6G,-120.946136,39.936771,"Quincy",KR6G,communications_transponder,,http://www.poi-factory.com/node/2227,,,,145.47,123,NFM,Public,AMATEUR,,,"offset=-"
W6ADI,-120.925278,38.66608,"Sierra",W6ADI,communications_transponder,,http://www.poi-factory.com/node/2227,,,,Pk,103.5,NFM,Public,AMATEUR,,,"offset=146.61MHz"
W6FM,-120.902969,36.019192,"San",W6FM,communications_transponder,,http://www.poi-factory.com/node/2227,,,,Ardo,127.3,NFM,Public,AMATEUR,,,"offset=146.73MHz"
KG6SHU,-120.864357,37.598839,"Hughson",KG6SHU,communications_transponder,,http://www.poi-factory.com/node/2227,,,,145.29,162.2,NFM,Public,AMATEUR,,,"offset=-"
WB6MIA,-120.848907,35.36594,"Morro",WB6MIA,communications_transponder,,http://www.poi-factory.com/node/2227,,,,Bay,127.3,NFM,Public,AMATEUR,,,"offset=146.86MHz"
W6SAR,-120.816299,39.020199,"Foresthill",W6SAR,communications_transponder,,http://www.poi-factory.com/node/2227,,,,146.745,156.7,NFM,Public,AMATEUR,,,"offset=-"
WA7SAR,-120.815,46.523,"Darland",WA7SAR,communications_transponder,,http://www.poi-factory.com/node/2227,,,,Mtn,,NFM,Public,AMATEUR,,,"offset=146.86MHz"
KA6GWY,-120.796608,38.72979,"Placerville",KA6GWY,communications_transponder,,http://www.poi-factory.com/node/2227,,,,146.805,123,NFM,Public,AMATEUR,,,"offset=-"
N6NGA,-120.796608,38.72979,"Placerville",N6NGA,communications_transponder,,http://www.poi-factory.com/node/2227,,,,147.255,136.5,NFM,Public,AMATEUR,,,"offset=+"
KC7UTD,-120.7922,46.0079,"Simcoe",KC7UTD,communications_transponder,,http://www.poi-factory.com/node/2227,,,,Mtn,88.5,NFM,Public,AMATEUR,,,"offset=146.92MHz"
WD6ALJ,-120.728302,38.616489,"Outingdale",WD6ALJ,communications_transponder,,http://www.poi-factory.com/node/2227,,,,146.85,146.2,NFM,Public,AMATEUR,,,"offset=-"
W6YDZ,-120.705551,35.548958,"Templeton",W6YDZ,communications_transponder,,http://www.poi-factory.com/node/2227,,,,146.88,88.5,NFM,Public,AMATEUR,,,"offset=-"
W6HDC,-120.694946,35.752659,"Mt",W6HDC,communications_transponder,,http://www.poi-factory.com/node/2227,,,,San,107.2,NFM,Public,AMATEUR,,,"offset=none"
W6YDZ,-120.691353,35.62669,"Paso",W6YDZ,communications_transponder,,http://www.poi-factory.com/node/2227,,,,Robles,,NFM,Public,AMATEUR,,,"offset=146.88MHz"
W6YDZ,-120.691353,35.62669,"Paso",W6YDZ,communications_transponder,,http://www.poi-factory.com/node/2227,,,,Robles,88.5,NFM,Public,AMATEUR,,,"offset=146.98MHz"
W6PRB,-120.691353,35.62669,"Paso",W6PRB,communications_transponder,,http://www.poi-factory.com/node/2227,,,,Robles,127.3,NFM,Public,AMATEUR,,,"offset=147.06MHz"
N6DPP,-120.673576,38.737659,"Camino",N6DPP,communications_transponder,,http://www.poi-factory.com/node/2227,,,,147.825,82.5,NFM,Public,AMATEUR,,,"offset=-"
K6ARC,-120.658234,38.412552,"Pine",K6ARC,communications_transponder,,http://www.poi-factory.com/node/2227,,,,Grove,100,NFM,Public,AMATEUR,,,"offset=146.835MHz"
W6SF,-120.658234,38.412552,"Pine",W6SF,communications_transponder,,http://www.poi-factory.com/node/2227,,,,Grove,123,NFM,Public,AMATEUR,,,"offset=147.165MHz"
W6BHZ,-120.65789,35.28286,"San",W6BHZ,communications_transponder,,http://www.poi-factory.com/node/2227,,,,Luis,127.3,NFM,Public,AMATEUR,,,"offset=none"
WB6FMC,-120.65789,35.28286,"San",WB6FMC,communications_transponder,,http://www.poi-factory.com/node/2227,,,,Luis,127.3,NFM,Public,AMATEUR,,,"offset=none"
W6FM,-120.65789,35.28286,"San",W6FM,communications_transponder,,http://www.poi-factory.com/node/2227,,,,Luis,127.3,NFM,Public,AMATEUR,,,"offset=none"
WD6FCG,-120.65789,35.28286,"San",WD6FCG,communications_transponder,,http://www.poi-factory.com/node/2227,,,,Marcos,114.8,NFM,Public,AMATEUR,,,"offset=145.28MHz"
KG6TXA,-120.641182,37.980721,"Copperopolis",KG6TXA,communications_transponder,,http://www.poi-factory.com/node/2227,,,,145.15,141.3,NFM,Public,AMATEUR,,,"offset=-"
WB6HEV,-120.600471,35.118759,"Fair",WB6HEV,communications_transponder,,http://www.poi-factory.com/node/2227,,,,Oaks,162.2,NFM,Public,AMATEUR,,,"offset=145.13MHz"
W6HIR,-120.600471,35.118759,"Fair",W6HIR,communications_transponder,,http://www.poi-factory.com/node/2227,,,,Oaks,100,NFM,Public,AMATEUR,,,"offset=146.79MHz"
WA6BTH,-120.586113,38.76157,"Pollock",WA6BTH,communications_transponder,,http://www.poi-factory.com/node/2227,,,,Pines,146.2,NFM,Public,AMATEUR,,,"offset=146.865MHz"
KA6BFB,-120.570251,34.972279,"Guadalupe",KA6BFB,communications_transponder,,http://www.poi-factory.com/node/2227,,,,146.175,100,NFM,Public,AMATEUR,,,"offset=+"
WR7KCR,-120.54873,46.99702,"Ellensburg",WR7KCR,communications_transponder,,http://www.poi-factory.com/node/2227,,,,146.72,,NFM,Public,AMATEUR,,,"offset=-"
WB6HMD,-120.542488,41.487099,"Alturas",WB6HMD,communications_transponder,,http://www.poi-factory.com/node/2227,,,,146.97,100,NFM,Public,AMATEUR,,,"offset=-"
WB6MFV,-120.538872,38.067951,"Angels",WB6MFV,communications_transponder,,http://www.poi-factory.com/node/2227,,,,Camp,100,NFM,Public,AMATEUR,,,"offset=145.17MHz"
KB7HDX,-120.50706,46.60413,"Yakima",KB7HDX,communications_transponder,,http://www.poi-factory.com/node/2227,,,,147.06,,NFM,Public,AMATEUR,,,"offset=+"
W6PPM,-120.481216,37.301708,"Merced",W6PPM,communications_transponder,,http://www.poi-factory.com/node/2227,,,,146.745,123,NFM,Public,AMATEUR,,,"offset=-"
K6IN,-120.481216,37.301708,"Merced",K6IN,communications_transponder,,http://www.poi-factory.com/node/2227,,,,147.255,127.3,NFM,Public,AMATEUR,,,"offset=+"
N6RAN,-120.475121,35.04211,"Nipomo",N6RAN,communications_transponder,,http://www.poi-factory.com/node/2227,,,,146.94,,NFM,Public,AMATEUR,,,"offset=-"
N6RAN,-120.475121,35.04211,"Nipomo",N6RAN,communications_transponder,,http://www.poi-factory.com/node/2227,,,,146.94,127.3,NFM,Public,AMATEUR,,,"offset=-"
N6LZR,-120.457939,38.1371,"Murphys",N6LZR,communications_transponder,,http://www.poi-factory.com/node/2227,,,,146.895,100,NFM,Public,AMATEUR,,,"offset=-"
WB6FLY,-120.456581,34.638939,"Lompoc",WB6FLY,communications_transponder,,http://www.poi-factory.com/node/2227,,,,145.35,131.8,NFM,Public,AMATEUR,,,"offset=-"
WA6YZV,-120.456581,34.638939,"Lompoc",WA6YZV,communications_transponder,,http://www.poi-factory.com/node/2227,,,,145.42,,NFM,Public,AMATEUR,,,"offset=-"
WA6VPL,-120.456581,34.638939,"Lompoc",WA6VPL,communications_transponder,,http://www.poi-factory.com/node/2227,,,,147.12,131.8,NFM,Public,AMATEUR,,,"offset=+"
KB7TYR,-120.4387,47.1873,"Naneum",KB7TYR,communications_transponder,,http://www.poi-factory.com/node/2227,,,,Ridge,,NFM,Public,AMATEUR,,,"offset=147.26MHz"
K6QN,-120.434082,34.953129,"Santa",K6QN,communications_transponder,,http://www.poi-factory.com/node/2227,,,,Monica,127.3,NFM,Public,AMATEUR,,,"offset=145.28MHz"
W6DCP,-120.431549,35.899872,"Parkfield",W6DCP,communications_transponder,,http://www.poi-factory.com/node/2227,,,,147.24,100,NFM,Public,AMATEUR,,,"offset=+"
W6FEJ,-120.399742,38.036781,"Columbia",W6FEJ,communications_transponder,,http://www.poi-factory.com/node/2227,,,,147.945,100,NFM,Public,AMATEUR,,,"offset=-"
N6DL,-120.359207,36.13887,"Coalinga",N6DL,communications_transponder,,http://www.poi-factory.com/node/2227,,,,147.33,100,NFM,Public,AMATEUR,,,"offset=+"
KE7QP,-120.3463,42.18887,"Lakeview",KE7QP,communications_transponder,,http://www.poi-factory.com/node/2227,,,,145.31,100,NFM,Public,AMATEUR,,,"offset=-"
KE7QP,-120.3463,42.18887,"Lakeview",KE7QP,communications_transponder,,http://www.poi-factory.com/node/2227,,,,147,100,NFM,Public,AMATEUR,,,"offset=+"
KB7MWF,-120.30488,47.41416,"Wenatchee",KB7MWF,communications_transponder,,http://www.poi-factory.com/node/2227,,,,146.78,,NFM,Public,AMATEUR,,,"offset=-"
KK6NB,-120.301262,37.81102,"Moccasin",KK6NB,communications_transponder,,http://www.poi-factory.com/node/2227,,,,147.675,100,NFM,Public,AMATEUR,,,"offset=-"
N6HUH,-120.26384,37.984669,"Soulsbyville",N6HUH,communications_transponder,,http://www.poi-factory.com/node/2227,,,,146.115,100,NFM,Public,AMATEUR,,,"offset=+"
KF6OTM,-120.231567,37.83831,"Groveland",KF6OTM,communications_transponder,,http://www.poi-factory.com/node/2227,,,,145.31,114.8,NFM,Public,AMATEUR,,,"offset=-"
WA6FWU,-120.185577,39.326752,"Truckee",WA6FWU,communications_transponder,,http://www.poi-factory.com/node/2227,,,,145.31,123,NFM,Public,AMATEUR,,,"offset=-"
W6SAR,-120.185577,39.326752,"Truckee",W6SAR,communications_transponder,,http://www.poi-factory.com/node/2227,,,,146.64,131.8,NFM,Public,AMATEUR,,,"offset=-"
WA6FJS,-120.139206,39.172329,"Tahoe",WA6FJS,communications_transponder,,http://www.poi-factory.com/node/2227,,,,City,100,NFM,Public,AMATEUR,,,"offset=146.94MHz"
KD6FW,-120.059952,36.96159,"Madera",KD6FW,communications_transponder,,http://www.poi-factory.com/node/2227,,,,146.7,141.3,NFM,Public,AMATEUR,,,"offset=-"
K7SMX,-120.01379,47.83979,"McNeal",K7SMX,communications_transponder,,http://www.poi-factory.com/node/2227,,,,Canyon,,NFM,Public,AMATEUR,,,"offset=147.1MHz"
W6SUV,-119.982277,38.933472,"So",W6SUV,communications_transponder,,http://www.poi-factory.com/node/2227,,,,Lake,203.5,NFM,Public,AMATEUR,,,"offset=none"
WA6EWV,-119.982277,38.933472,"So",WA6EWV,communications_transponder,,http://www.poi-factory.com/node/2227,,,,Lake,123,NFM,Public,AMATEUR,,,"offset=none"
NR7A,-119.982277,38.933472,"So",NR7A,communications_transponder,,http://www.poi-factory.com/node/2227,,,,Lake,123,NFM,Public,AMATEUR,,,"offset=none"
N6JNS,-119.982277,38.933472,"Solvang",N6JNS,communications_transponder,,http://www.poi-factory.com/node/2227,,,,146.895,,NFM,Public,AMATEUR,,,"offset=-"
AA6GV,-119.982277,38.933472,"Sonoma",AA6GV,communications_transponder,,http://www.poi-factory.com/node/2227,,,,146.205,88.5,NFM,Public,AMATEUR,,,"offset=+"
WB6SAT,-119.982277,38.933472,"Sonora",WB6SAT,communications_transponder,,http://www.poi-factory.com/node/2227,,,,147.975,100,NFM,Public,AMATEUR,,,"offset=-"
W6PPM,-119.965569,37.485088,"Mariposa",W6PPM,communications_transponder,,http://www.poi-factory.com/node/2227,,,,146.745,146.2,NFM,Public,AMATEUR,,,"offset=-"
W6BXN,-119.965569,37.485088,"Mariposa",W6BXN,communications_transponder,,http://www.poi-factory.com/node/2227,,,,147.03,100,NFM,Public,AMATEUR,,,"offset=+"
K6TZ,-119.82663,34.435791,"Goleta",K6TZ,communications_transponder,,http://www.poi-factory.com/node/2227,,,,145.24,131.8,NFM,Public,AMATEUR,,,"offset=-"
WB6TIA,-119.77253,36.747749,"Fresno",WB6TIA,communications_transponder,,http://www.poi-factory.com/node/2227,,,,145.13,,NFM,Public,AMATEUR,,,"offset=-"
N6MTS,-119.77253,36.747749,"Fresno",N6MTS,communications_transponder,,http://www.poi-factory.com/node/2227,,,,145.23,141.3,NFM,Public,AMATEUR,,,"offset=-"
W7POR,-119.77253,36.747749,"Fresno",W7POR,communications_transponder,,http://www.poi-factory.com/node/2227,,,,145.47,141.3,NFM,Public,AMATEUR,,,"offset=-"
WB6QDN,-119.77253,36.747749,"Fresno",WB6QDN,communications_transponder,,http://www.poi-factory.com/node/2227,,,,146.61,,NFM,Public,AMATEUR,,,"offset=-"
N6BYH,-119.77253,36.747749,"Fresno",N6BYH,communications_transponder,,http://www.poi-factory.com/node/2227,,,,146.775,141.3,NFM,Public,AMATEUR,,,"offset=-"
KE6VFU,-119.77253,36.747749,"Fresno",KE6VFU,communications_transponder,,http://www.poi-factory.com/node/2227,,,,146.79,141.3,NFM,Public,AMATEUR,,,"offset=-"
K6OGX,-119.77253,36.747749,"Fresno",K6OGX,communications_transponder,,http://www.poi-factory.com/node/2227,,,,146.85,141.3,NFM,Public,AMATEUR,,,"offset=-"
W6TO,-119.77253,36.747749,"Fresno",W6TO,communications_transponder,,http://www.poi-factory.com/node/2227,,,,146.94,141.3,NFM,Public,AMATEUR,,,"offset=-"
W7POR,-119.77253,36.747749,"Fresno",W7POR,communications_transponder,,http://www.poi-factory.com/node/2227,,,,147.105,141.3,NFM,Public,AMATEUR,,,"offset=+"
N6HEW,-119.77253,36.747749,"Fresno",N6HEW,communications_transponder,,http://www.poi-factory.com/node/2227,,,,147.15,141.3,NFM,Public,AMATEUR,,,"offset=+"
K6JHX,-119.764999,37.2197,"Castro",K6JHX,communications_transponder,,http://www.poi-factory.com/node/2227,,,,Peak,,NFM,Public,AMATEUR,,,"offset=147.225MHz"
AA6DP,-119.764999,37.2197,"Catalina",AA6DP,communications_transponder,,http://www.poi-factory.com/node/2227,,,,147.09,,NFM,Public,AMATEUR,,,"offset=+"
KC6PXL,-119.764999,37.2197,"Contractors",KC6PXL,communications_transponder,,http://www.poi-factory.com/node/2227,,,,Point,,NFM,Public,AMATEUR,,,"offset=145.12MHz"
K6CPT,-119.764999,37.2197,"Disappointment",K6CPT,communications_transponder,,http://www.poi-factory.com/node/2227,,,,145.3,100,NFM,Public,AMATEUR,,,"offset=-"
WA6ZTR,-119.764999,37.2197,"Disappointment",WA6ZTR,communications_transponder,,http://www.poi-factory.com/node/2227,,,,147.27,100,NFM,Public,AMATEUR,,,"offset=+"
K6VGP,-119.764999,37.2197,"Disappointment",K6VGP,communications_transponder,,http://www.poi-factory.com/node/2227,,,,147.36,,NFM,Public,AMATEUR,,,"offset=+"
KE6FUZ,-119.764999,37.2197,"Disneyland",KE6FUZ,communications_transponder,,http://www.poi-factory.com/node/2227,,,,146.94,131.8,NFM,Public,AMATEUR,,,"offset=-"
W6MEP,-119.764999,37.2197,"Duck",W6MEP,communications_transponder,,http://www.poi-factory.com/node/2227,,,,Mtn,67,NFM,Public,AMATEUR,,,"offset=147.24MHz"
KA6EEK,-119.764999,37.2197,"Easter",KA6EEK,communications_transponder,,http://www.poi-factory.com/node/2227,,,,Hill,,NFM,Public,AMATEUR,,,"offset=145.16MHz"
N7RDA,-119.764999,37.2197,"Flint",N7RDA,communications_transponder,,http://www.poi-factory.com/node/2227,,,,Peak,131.8,NFM,Public,AMATEUR,,,"offset=147.705MHz"
K6AER,-119.764999,37.2197,"Grissom",K6AER,communications_transponder,,http://www.poi-factory.com/node/2227,,,,Point,,NFM,Public,AMATEUR,,,"offset=146.85MHz"
KE6KIS,-119.764999,37.2197,"Hauser",KE6KIS,communications_transponder,,http://www.poi-factory.com/node/2227,,,,Peak,100,NFM,Public,AMATEUR,,,"offset=146.73MHz"
W3TGG,-119.764999,37.2197,"Hollywood",W3TGG,communications_transponder,,http://www.poi-factory.com/node/2227,,,,Hls,,NFM,Public,AMATEUR,,,"offset=144.505MHz"
K6PSK,-119.764999,37.2197,"Hollywood",K6PSK,communications_transponder,,http://www.poi-factory.com/node/2227,,,,Hls,,NFM,Public,AMATEUR,,,"offset=146.115MHz"
WB6BJM,-119.764999,37.2197,"Hollywood",WB6BJM,communications_transponder,,http://www.poi-factory.com/node/2227,,,,Hls,,NFM,Public,AMATEUR,,,"offset=147MHz"
KA6NCR,-119.764999,37.2197,"Johnstone",KA6NCR,communications_transponder,,http://www.poi-factory.com/node/2227,,,,Peak,,NFM,Public,AMATEUR,,,"offset=144.97MHz"
W6FNO,-119.764999,37.2197,"Johnstone",W6FNO,communications_transponder,,http://www.poi-factory.com/node/2227,,,,Peak,,NFM,Public,AMATEUR,,,"offset=146.82MHz"
W6KRW,-119.764999,37.2197,"Lomas",W6KRW,communications_transponder,,http://www.poi-factory.com/node/2227,,,,Peak,136.5,NFM,Public,AMATEUR,,,"offset=146.895MHz"
W6AM,-119.764999,37.2197,"Mt",W6AM,communications_transponder,,http://www.poi-factory.com/node/2227,,,,Lukens,,NFM,Public,AMATEUR,,,"offset=145.48MHz"
KD6AFA,-119.764999,37.2197,"Mt",KD6AFA,communications_transponder,,http://www.poi-factory.com/node/2227,,,,Lukens,192.8,NFM,Public,AMATEUR,,,"offset=146.67MHz"
W6NVY,-119.764999,37.2197,"Mt",W6NVY,communications_transponder,,http://www.poi-factory.com/node/2227,,,,Lukens,,NFM,Public,AMATEUR,,,"offset=147.195MHz"
WA6PPS,-119.764999,37.2197,"Mt",WA6PPS,communications_transponder,,http://www.poi-factory.com/node/2227,,,,Lukens,,NFM,Public,AMATEUR,,,"offset=147.3MHz"
W6PWT,-119.764999,37.2197,"Norco",W6PWT,communications_transponder,,http://www.poi-factory.com/node/2227,,,,Hills,162.2,NFM,Public,AMATEUR,,,"offset=147.06MHz"
N7RDA,-119.764999,37.2197,"Oat",N7RDA,communications_transponder,,http://www.poi-factory.com/node/2227,,,,Mtn,141.3,NFM,Public,AMATEUR,,,"offset=147.705MHz"
KB6C,-119.764999,37.2197,"Oat",KB6C,communications_transponder,,http://www.poi-factory.com/node/2227,,,,Mtn,100,NFM,Public,AMATEUR,,,"offset=147.735MHz"
KF6JWT,-119.764999,37.2197,"Oat",KF6JWT,communications_transponder,,http://www.poi-factory.com/node/2227,,,,Mtn,136.5,NFM,Public,AMATEUR,,,"offset=147.945MHz"
KF6ZTY,-119.764999,37.2197,"Palos",KF6ZTY,communications_transponder,,http://www.poi-factory.com/node/2227,,,,Verdes,,NFM,Public,AMATEUR,,,"offset=144.895MHz"
N6RBR,-119.764999,37.2197,"Palos",N6RBR,communications_transponder,,http://www.poi-factory.com/node/2227,,,,Verdes,100,NFM,Public,AMATEUR,,,"offset=145.38MHz"
WA6LA,-119.764999,37.2197,"Palos",WA6LA,communications_transponder,,http://www.poi-factory.com/node/2227,,,,Verdes,100,NFM,Public,AMATEUR,,,"offset=145.38MHz"
KA6TSA,-119.764999,37.2197,"Palos",KA6TSA,communications_transponder,,http://www.poi-factory.com/node/2227,,,,Verdes,,NFM,Public,AMATEUR,,,"offset=146.235MHz"
W6RBW,-119.764999,37.2197,"Palos",W6RBW,communications_transponder,,http://www.poi-factory.com/node/2227,,,,Verdes,,NFM,Public,AMATEUR,,,"offset=147.06MHz"
W6NVY,-119.764999,37.2197,"Palos",W6NVY,communications_transponder,,http://www.poi-factory.com/node/2227,,,,Verdes,100,NFM,Public,AMATEUR,,,"offset=147.195MHz"
K6VGP,-119.764999,37.2197,"Palos",K6VGP,communications_transponder,,http://www.poi-factory.com/node/2227,,,,Verdes,,NFM,Public,AMATEUR,,,"offset=147.36MHz"
AA6RJ,-119.764999,37.2197,"Palos",AA6RJ,communications_transponder,,http://www.poi-factory.com/node/2227,,,,Verdes,,NFM,Public,AMATEUR,,,"offset=147.42MHz"
WB6BJM,-119.764999,37.2197,"Saddle",WB6BJM,communications_transponder,,http://www.poi-factory.com/node/2227,,,,Peak,,NFM,Public,AMATEUR,,,"offset=147MHz"
WD6AWP,-119.764999,37.2197,"Santiago",WD6AWP,communications_transponder,,http://www.poi-factory.com/node/2227,,,,Peak,,NFM,Public,AMATEUR,,,"offset=145.14MHz"
KA6EEK,-119.764999,37.2197,"Santiago",KA6EEK,communications_transponder,,http://www.poi-factory.com/node/2227,,,,Peak,,NFM,Public,AMATEUR,,,"offset=145.16MHz"
N6SLD,-119.764999,37.2197,"Santiago",N6SLD,communications_transponder,,http://www.poi-factory.com/node/2227,,,,Peak,,NFM,Public,AMATEUR,,,"offset=145.22MHz"
WA6TFD,-119.764999,37.2197,"Santiago",WA6TFD,communications_transponder,,http://www.poi-factory.com/node/2227,,,,Peak,114.8,NFM,Public,AMATEUR,,,"offset=146.925MHz"
KA6EEK,-119.764999,37.2197,"Sierra",KA6EEK,communications_transponder,,http://www.poi-factory.com/node/2227,,,,Pk,,NFM,Public,AMATEUR,,,"offset=145.16MHz"
W6ADI,-119.764999,37.2197,"Sierra",W6ADI,communications_transponder,,http://www.poi-factory.com/node/2227,,,,Pk,103.5,NFM,Public,AMATEUR,,,"offset=146.61MHz"
WR6AZN,-119.764999,37.2197,"Table",WR6AZN,communications_transponder,,http://www.poi-factory.com/node/2227,,,,Mtn,131.8,NFM,Public,AMATEUR,,,"offset=145.28MHz"
K6VGP,-119.764999,37.2197,"Verdugo",K6VGP,communications_transponder,,http://www.poi-factory.com/node/2227,,,,Pk,,NFM,Public,AMATEUR,,,"offset=147.36MHz"
K6ARP,-119.703423,36.825317,"Clovis",K6ARP,communications_transponder,,http://www.poi-factory.com/node/2227,,,,147.675,141.3,NFM,Public,AMATEUR,,,"offset=-"
W6JW,-119.696747,34.419769,"Santa",W6JW,communications_transponder,,http://www.poi-factory.com/node/2227,,,,Clarita,123,NFM,Public,AMATEUR,,,"offset=146.79MHz"
N6TCO,-119.696747,34.419769,"Santa",N6TCO,communications_transponder,,http://www.poi-factory.com/node/2227,,,,Clarita,67,NFM,Public,AMATEUR,,,"offset=146.97MHz"
W6WGZ,-119.648582,37.32774,"Oakhurst",W6WGZ,communications_transponder,,http://www.poi-factory.com/node/2227,,,,147.18,146.2,NFM,Public,AMATEUR,,,"offset=+"
WB6NIL,-119.648582,37.32774,"Oakhurst",WB6NIL,communications_transponder,,http://www.poi-factory.com/node/2227,,,,147.825,123,NFM,Public,AMATEUR,,,"offset=-"
KA6Q,-119.644188,36.326839,"Hanford",KA6Q,communications_transponder,,http://www.poi-factory.com/node/2227,,,,145.11,100,NFM,Public,AMATEUR,,,"offset=-"
KC6QIT,-119.644188,36.326839,"Hanford",KC6QIT,communications_transponder,,http://www.poi-factory.com/node/2227,,,,146.895,77,NFM,Public,AMATEUR,,,"offset=-"
N7XBB,-119.57957,48.36542,"Okanogan",N7XBB,communications_transponder,,http://www.poi-factory.com/node/2227,,,,146.72,,NFM,Public,AMATEUR,,,"offset=-"
N6SGW,-119.385979,36.543991,"Dinuba",N6SGW,communications_transponder,,http://www.poi-factory.com/node/2227,,,,147.3,77,NFM,Public,AMATEUR,,,"offset=+"
W7GSN,-119.3672,48.4513,"Omak",W7GSN,communications_transponder,,http://www.poi-factory.com/node/2227,,,,Mtn,,NFM,Public,AMATEUR,,,"offset=145.45MHz"
KD6AZF,-119.31691,37.104057,"Shingle",KD6AZF,communications_transponder,,http://www.poi-factory.com/node/2227,,,,Springs,94.8,NFM,Public,AMATEUR,,,"offset=146.67MHz"
WO3B,-119.31691,37.104057,"Shingle",WO3B,communications_transponder,,http://www.poi-factory.com/node/2227,,,,Springs,136.5,NFM,Public,AMATEUR,,,"offset=146.94MHz"
WA7EAQ,-119.316,46.2333,"Badger",WA7EAQ,communications_transponder,,http://www.poi-factory.com/node/2227,,,,Mtn,,NFM,Public,AMATEUR,,,"offset=147.34MHz"
N6AHI,-119.292969,34.278259,"Ventura",N6AHI,communications_transponder,,http://www.poi-factory.com/node/2227,,,,147.975,127.3,NFM,Public,AMATEUR,,,"offset=-"
N6BYH,-119.291313,36.329941,"Visalia",N6BYH,communications_transponder,,http://www.poi-factory.com/node/2227,,,,146.76,141.3,NFM,Public,AMATEUR,,,"offset=-"
N6FL,-119.241653,34.448059,"Ojai",N6FL,communications_transponder,,http://www.poi-factory.com/node/2227,,,,145.4,,NFM,Public,AMATEUR,,,"offset=-"
W7VPA,-119.1941,46.0966,"Johnson",W7VPA,communications_transponder,,http://www.poi-factory.com/node/2227,,,,Butte,100,NFM,Public,AMATEUR,,,"offset=146.64MHz"
WB6YQN,-119.175888,34.197571,"Oxnard",WB6YQN,communications_transponder,,http://www.poi-factory.com/node/2227,,,,146.97,127.3,NFM,Public,AMATEUR,,,"offset=-"
N7LZM,-119.11699,46.20802,"Kennewick",N7LZM,communications_transponder,,http://www.poi-factory.com/node/2227,,,,147.22,,NFM,Public,AMATEUR,,,"offset=+"
WA6YGD,-119.059647,34.356022,"Santa",WA6YGD,communications_transponder,,http://www.poi-factory.com/node/2227,,,,Rosa,88.5,NFM,Public,AMATEUR,,,"offset=145.35MHz"
W6SON,-119.059647,34.356022,"Santa",W6SON,communications_transponder,,http://www.poi-factory.com/node/2227,,,,Rosa,88.5,NFM,Public,AMATEUR,,,"offset=146.73MHz"
WB6ZTQ,-119.05073,34.22293,"Camarillo",WB6ZTQ,communications_transponder,,http://www.poi-factory.com/node/2227,,,,Ht,127.3,NFM,Public,AMATEUR,,,"offset=147.15MHz"
KN6OK,-119.037697,34.216419,"Camarillo",KN6OK,communications_transponder,,http://www.poi-factory.com/node/2227,,,,145.28,100,NFM,Public,AMATEUR,,,"offset=-"
W6LIE,-119.018738,35.371681,"Bakersfield",W6LIE,communications_transponder,,http://www.poi-factory.com/node/2227,,,,145.15,100,NFM,Public,AMATEUR,,,"offset=-"
W6BRB,-119.018738,35.371681,"Bakersfield",W6BRB,communications_transponder,,http://www.poi-factory.com/node/2227,,,,145.27,67,NFM,Public,AMATEUR,,,"offset=-"
W6LI,-119.018738,35.371681,"Bakersfield",W6LI,communications_transponder,,http://www.poi-factory.com/node/2227,,,,145.41,103.5,NFM,Public,AMATEUR,,,"offset=-"
WA6CLS,-119.018738,35.371681,"Bakersfield",WA6CLS,communications_transponder,,http://www.poi-factory.com/node/2227,,,,146.67,100,NFM,Public,AMATEUR,,,"offset=-"
W6LIE,-119.018738,35.371681,"Bakersfield",W6LIE,communications_transponder,,http://www.poi-factory.com/node/2227,,,,146.91,100,NFM,Public,AMATEUR,,,"offset=-"
W6MEL,-119.018738,35.371681,"Bakersfield",W6MEL,communications_transponder,,http://www.poi-factory.com/node/2227,,,,147.09,,NFM,Public,AMATEUR,,,"offset=+"
W6YK,-119.018738,35.371681,"Bakersfield",W6YK,communications_transponder,,http://www.poi-factory.com/node/2227,,,,147.21,100,NFM,Public,AMATEUR,,,"offset=+"
W6BJ,-119.016411,36.06525,"Porterville",W6BJ,communications_transponder,,http://www.poi-factory.com/node/2227,,,,145.31,,NFM,Public,AMATEUR,,,"offset=-"
K6LSB,-119.016411,36.06525,"Porterville",K6LSB,communications_transponder,,http://www.poi-factory.com/node/2227,,,,146.655,,NFM,Public,AMATEUR,,,"offset=-"
WA6BAI,-119.016411,36.06525,"Porterville",WA6BAI,communications_transponder,,http://www.poi-factory.com/node/2227,,,,146.88,103.5,NFM,Public,AMATEUR,,,"offset=-"
N7GCD,-118.97717,47.9706,"Coulee",N7GCD,communications_transponder,,http://www.poi-factory.com/node/2227,,,,Dam,,NFM,Public,AMATEUR,,,"offset=146.86MHz"
K6VGA,-118.943779,34.823818,"Frazier",K6VGA,communications_transponder,,http://www.poi-factory.com/node/2227,,,,Park,,NFM,Public,AMATEUR,,,"offset=147.765MHz"
WA6MTZ,-118.910049,34.183929,"Newberry",WA6MTZ,communications_transponder,,http://www.poi-factory.com/node/2227,,,,Spgs,,NFM,Public,AMATEUR,,,"offset=146.7MHz"
N6JMI,-118.910049,34.183929,"Newbury",N6JMI,communications_transponder,,http://www.poi-factory.com/node/2227,,,,Park,127.3,NFM,Public,AMATEUR,,,"offset=146.67MHz"
N6JMI,-118.910049,34.183929,"Newbury",N6JMI,communications_transponder,,http://www.poi-factory.com/node/2227,,,,Park,127.3,NFM,Public,AMATEUR,,,"offset=146.67MHz"
KE6TOI,-118.910049,34.183929,"Newbury",KE6TOI,communications_transponder,,http://www.poi-factory.com/node/2227,,,,Park,,NFM,Public,AMATEUR,,,"offset=146.94MHz"
N6JMI,-118.910049,34.183929,"Newbury",N6JMI,communications_transponder,,http://www.poi-factory.com/node/2227,,,,Park,127.3,NFM,Public,AMATEUR,,,"offset=147.885MHz"
N6JMI,-118.910049,34.183929,"Newbury",N6JMI,communications_transponder,,http://www.poi-factory.com/node/2227,,,,Park,127.3,NFM,Public,AMATEUR,,,"offset=147.885MHz"
WD8RCL,-118.837646,34.170387,"Thousand",WD8RCL,communications_transponder,,http://www.poi-factory.com/node/2227,,,,Oaks,,NFM,Public,AMATEUR,,,"offset=145.32MHz"
WD8RCL,-118.837646,34.170387,"Thousand",WD8RCL,communications_transponder,,http://www.poi-factory.com/node/2227,,,,Oaks,,NFM,Public,AMATEUR,,,"offset=145.32MHz"
KM6OR,-118.818367,36.130299,"Springville",KM6OR,communications_transponder,,http://www.poi-factory.com/node/2227,,,,146.73,141.3,NFM,Public,AMATEUR,,,"offset=-"
N6FDR,-118.809227,34.005371,"Malibu",N6FDR,communications_transponder,,http://www.poi-factory.com/node/2227,,,,145.26,100,NFM,Public,AMATEUR,,,"offset=-"
N6FDR,-118.809227,34.005371,"Malibu",N6FDR,communications_transponder,,http://www.poi-factory.com/node/2227,,,,145.26,100,NFM,Public,AMATEUR,,,"offset=-"
K7RPT,-118.787483,45.672691,"Pendleton",K7RPT,communications_transponder,,http://www.poi-factory.com/node/2227,,,,147.12,,NFM,Public,AMATEUR,,,"offset=+"
WA6FGK,-118.780121,34.269669,"Simi",WA6FGK,communications_transponder,,http://www.poi-factory.com/node/2227,,,,Valley,127.3,NFM,Public,AMATEUR,,,"offset=146.64MHz"
KC6RZY,-118.780121,34.269669,"Simi",KC6RZY,communications_transponder,,http://www.poi-factory.com/node/2227,,,,Valley,136.5,NFM,Public,AMATEUR,,,"offset=146.91MHz"
AD6SV,-118.780121,34.269669,"Simi",AD6SV,communications_transponder,,http://www.poi-factory.com/node/2227,,,,Valley,127.3,NFM,Public,AMATEUR,,,"offset=147.93MHz"
WA6AQQ,-118.605797,34.16853,"Woodland",WA6AQQ,communications_transponder,,http://www.poi-factory.com/node/2227,,,,Hills,103.5,NFM,Public,AMATEUR,,,"offset=146.265MHz"
WA6AQQ,-118.605797,34.16853,"Woodland",WA6AQQ,communications_transponder,,http://www.poi-factory.com/node/2227,,,,Hills,103.5,NFM,Public,AMATEUR,,,"offset=146.265MHz"
W6JW,-118.542107,34.391331,"Santa",W6JW,communications_transponder,,http://www.poi-factory.com/node/2227,,,,Clarita,123,NFM,Public,AMATEUR,,,"offset=146.79MHz"
N6TCO,-118.542107,34.391331,"Santa",N6TCO,communications_transponder,,http://www.poi-factory.com/node/2227,,,,Clarita,67,NFM,Public,AMATEUR,,,"offset=146.97MHz"
W6PEK,-118.542107,34.391331,"Santa",W6PEK,communications_transponder,,http://www.poi-factory.com/node/2227,,,,Cruz,100,NFM,Public,AMATEUR,,,"offset=145.25MHz"
K6QN,-118.490433,34.020279,"Santa",K6QN,communications_transponder,,http://www.poi-factory.com/node/2227,,,,Monica,127.3,NFM,Public,AMATEUR,,,"offset=145.28MHz"
KD6GDB,-118.490433,34.020279,"Santa",KD6GDB,communications_transponder,,http://www.poi-factory.com/node/2227,,,,Monica,,NFM,Public,AMATEUR,,,"offset=145.8MHz"
KD6LC,-118.490433,34.020279,"Santa",KD6LC,communications_transponder,,http://www.poi-factory.com/node/2227,,,,Rosa,88.5,NFM,Public,AMATEUR,,,"offset=145.19MHz"
WB6NLU,-118.469971,35.616428,"Lake",WB6NLU,communications_transponder,,http://www.poi-factory.com/node/2227,,,,Elsinore,136.5,NFM,Public,AMATEUR,,,"offset=146.76MHz"
KC6OCA,-118.469971,35.616428,"Lake",KC6OCA,communications_transponder,,http://www.poi-factory.com/node/2227,,,,Isabella,156.7,NFM,Public,AMATEUR,,,"offset=145.45MHz"
WD6APP,-118.465027,34.257259,"Mission",WD6APP,communications_transponder,,http://www.poi-factory.com/node/2227,,,,Hills,107.2,NFM,Public,AMATEUR,,,"offset=145.32MHz"
NK6S,-118.448669,34.150898,"Sherman",NK6S,communications_transponder,,http://www.poi-factory.com/node/2227,,,,Oaks,,NFM,Public,AMATEUR,,,"offset=145.24MHz"
K6LDO,-118.447739,34.08316,"Bel",K6LDO,communications_transponder,,http://www.poi-factory.com/node/2227,,,,Air,,NFM,Public,AMATEUR,,,"offset=147.03MHz"
W6SLZ,-118.447166,35.132591,"Tehachapi",W6SLZ,communications_transponder,,http://www.poi-factory.com/node/2227,,,,146.7,88.5,NFM,Public,AMATEUR,,,"offset=-"
W6PVG,-118.447166,35.132591,"Tehachapi",W6PVG,communications_transponder,,http://www.poi-factory.com/node/2227,,,,147.06,,NFM,Public,AMATEUR,,,"offset=+"
KG6DVO,-118.446617,34.30637,"Sylmar",KG6DVO,communications_transponder,,http://www.poi-factory.com/node/2227,,,,147.435,103.5,NFM,Public,AMATEUR,,,"offset=-1.035MHz"
KG6DVO,-118.446617,34.30637,"Sylmar",KG6DVO,communications_transponder,,http://www.poi-factory.com/node/2227,,,,147.435,103.5,NFM,Public,AMATEUR,,,"offset=-1.035MHz"
K6PXF,-118.3937,37.363499,"Bishop",K6PXF,communications_transponder,,http://www.poi-factory.com/node/2227,,,,146.61,,NFM,Public,AMATEUR,,,"offset=+"
K6PXF,-118.3937,37.363499,"Bishop",K6PXF,communications_transponder,,http://www.poi-factory.com/node/2227,,,,146.82,,NFM,Public,AMATEUR,,,"offset=-"
W6IY,-118.3937,37.363499,"Bishop",W6IY,communications_transponder,,http://www.poi-factory.com/node/2227,,,,146.91,,NFM,Public,AMATEUR,,,"offset=-"
W6TRW,-118.387627,33.849758,"Redondo",W6TRW,communications_transponder,,http://www.poi-factory.com/node/2227,,,,Beach,114.8,NFM,Public,AMATEUR,,,"offset=145.32MHz"
W6TRW,-118.387627,33.849758,"Redondo",W6TRW,communications_transponder,,http://www.poi-factory.com/node/2227,,,,Beach,114.8,NFM,Public,AMATEUR,,,"offset=145.32MHz"
K0JPK,-118.387627,33.849758,"Redondo",K0JPK,communications_transponder,,http://www.poi-factory.com/node/2227,,,,Beach,,NFM,Public,AMATEUR,,,"offset=146.73MHz"
KJ6KB,-118.385452,33.74403,"Rancho",KJ6KB,communications_transponder,,http://www.poi-factory.com/node/2227,,,,Palos,250.3,NFM,Public,AMATEUR,,,"offset=none"
WD7C,-118.37957,47.12731,"Ritzville",WD7C,communications_transponder,,http://www.poi-factory.com/node/2227,,,,146.72,,NFM,Public,AMATEUR,,,"offset=-"
WA6TFD,-118.370316,33.98547,"Baldwin",WA6TFD,communications_transponder,,http://www.poi-factory.com/node/2227,,,,Hills,114.8,NFM,Public,AMATEUR,,,"offset=146.925MHz"
WA6TFD,-118.370316,33.98547,"Baldwin",WA6TFD,communications_transponder,,http://www.poi-factory.com/node/2227,,,,Hills,114.8,NFM,Public,AMATEUR,,,"offset=146.925MHz"
AA6DP,-118.32134,33.34411,"Catalina",AA6DP,communications_transponder,,http://www.poi-factory.com/node/2227,,,,147.09,,NFM,Public,AMATEUR,,,"offset=+"
W6DRA,-118.32134,33.34411,"Chuckwalla",W6DRA,communications_transponder,,http://www.poi-factory.com/node/2227,,,,Mtn,162.2,NFM,Public,AMATEUR,,,"offset=145.38MHz"
KB6LJQ,-118.32134,33.34411,"Chuckwalla",KB6LJQ,communications_transponder,,http://www.poi-factory.com/node/2227,,,,Mtn,203.5,NFM,Public,AMATEUR,,,"offset=146.355MHz"
W6JAM,-118.30864,34.180859,"Burbank",W6JAM,communications_transponder,,http://www.poi-factory.com/node/2227,,,,147.99,,NFM,Public,AMATEUR,,,"offset=-"
W6JAM,-118.287338,34.252258,"Tujunga",W6JAM,communications_transponder,,http://www.poi-factory.com/node/2227,,,,146.16,146.2,NFM,Public,AMATEUR,,,"offset=+"
W6JAM,-118.287338,34.252258,"Tujunga",W6JAM,communications_transponder,,http://www.poi-factory.com/node/2227,,,,146.16,146.2,NFM,Public,AMATEUR,,,"offset=+"
WB6ZTY,-118.254936,34.142548,"Glendale",WB6ZTY,communications_transponder,,http://www.poi-factory.com/node/2227,,,,146.025,136.5,NFM,Public,AMATEUR,,,"offset=+"
WB6ZTY,-118.254936,34.142548,"Glendale",WB6ZTY,communications_transponder,,http://www.poi-factory.com/node/2227,,,,146.025,136.5,NFM,Public,AMATEUR,,,"offset=+"
WA6NRB,-118.254936,34.142548,"Glendale",WA6NRB,communications_transponder,,http://www.poi-factory.com/node/2227,,,,147.12,136.5,NFM,Public,AMATEUR,,,"offset=+"
WA6NRB,-118.254936,34.142548,"Glendale",WA6NRB,communications_transponder,,http://www.poi-factory.com/node/2227,,,,147.12,136.5,NFM,Public,AMATEUR,,,"offset=+"
