name,longitude,latitude,location,ref,man_made,operator,source,url,height,ele,communications_transponder:frequency,communications_transponder:tone,communications_transponder:modulation,communications_transponder:access,communications_transponder:service,communications_transponder:polarisation,communications_transponder:power,comment
NH6JA,-159.530258,21.928688,"Kalaheo",NH6JA,communications_transponder,,http://www.poi-factory.com/node/2227,,,,442.05,,NFM,Public,AMATEUR,,,"offset=+"
NH6HF,-159.371643,21.980274,"Lihue",NH6HF,communications_transponder,,http://www.poi-factory.com/node/2227,,,,444.9,,NFM,Public,AMATEUR,,,"offset=+"
KH6HFD,-158.152283,21.58008,"Mokuleia",KH6HFD,communications_transponder,,http://www.poi-factory.com/node/2227,,,,443.4,114.8,NFM,Public,AMATEUR,,,"offset=+"
KH6HFD,-158.152283,21.58008,"Mokuleia",KH6HFD,communications_transponder,,http://www.poi-factory.com/node/2227,,,,443.6,,NFM,Public,AMATEUR,,,"offset=+"
KH6CY,-158.040436,21.342449,"Ewa",KH6CY,communications_transponder,,http://www.poi-factory.com/node/2227,,,,443.1,103.5,NFM,Public,AMATEUR,,,"offset=+"
NH6QJ,-157.858444,21.3067,"Honolulu",NH6QJ,communications_transponder,,http://www.poi-factory.com/node/2227,,,,442.6,,NFM,Public,AMATEUR,,,"offset=4MHz"
WH6F,-157.858444,21.3067,"Honolulu",WH6F,communications_transponder,,http://www.poi-factory.com/node/2227,,,,443.3,,NFM,Public,AMATEUR,,,"offset=+"
NH6QJ,-157.858444,21.3067,"Honolulu",NH6QJ,communications_transponder,,http://www.poi-factory.com/node/2227,,,,443.45,,NFM,Public,AMATEUR,,,"offset=+"
WH6UG,-157.858444,21.3067,"Honolulu",WH6UG,communications_transponder,,http://www.poi-factory.com/node/2227,,,,443.675,,NFM,Public,AMATEUR,,,"offset=+"
NH6XO,-157.858444,21.3067,"Honolulu",NH6XO,communications_transponder,,http://www.poi-factory.com/node/2227,,,,443.775,123,NFM,Public,AMATEUR,,,"offset=+"
KH7TK,-157.858444,21.3067,"Honolulu",KH7TK,communications_transponder,,http://www.poi-factory.com/node/2227,,,,443.95,118.8,NFM,Public,AMATEUR,,,"offset=+"
NH6WP,-157.858444,21.3067,"Honolulu",NH6WP,communications_transponder,,http://www.poi-factory.com/node/2227,,,,444,,NFM,Public,AMATEUR,,,"offset=+"
KH6OCD,-157.858444,21.3067,"Honolulu",KH6OCD,communications_transponder,,http://www.poi-factory.com/node/2227,,,,444.05,,NFM,Public,AMATEUR,,,"offset=+"
KH6SW,-157.858444,21.3067,"Honolulu",KH6SW,communications_transponder,,http://www.poi-factory.com/node/2227,,,,444.2,,NFM,Public,AMATEUR,,,"offset=+"
AH6RH,-157.858444,21.3067,"Honolulu",AH6RH,communications_transponder,,http://www.poi-factory.com/node/2227,,,,444.325,,NFM,Public,AMATEUR,,,"offset=+"
AH6CP,-157.858444,21.3067,"Honolulu",AH6CP,communications_transponder,,http://www.poi-factory.com/node/2227,,,,444.35,103.5,NFM,Public,AMATEUR,,,"offset=+"
KH7O,-157.858444,21.3067,"Honolulu",KH7O,communications_transponder,,http://www.poi-factory.com/node/2227,,,,444.45,,NFM,Public,AMATEUR,,,"offset=+"
AH7HI,-157.858444,21.3067,"Honolulu",AH7HI,communications_transponder,,http://www.poi-factory.com/node/2227,,,,444.825,,NFM,Public,AMATEUR,,,"offset=+"
NH6YM,-157.858444,21.3067,"Honolulu",NH6YM,communications_transponder,,http://www.poi-factory.com/node/2227,,,,444.875,103.5,NFM,Public,AMATEUR,,,"offset=+"
AH6CP,-157.858444,21.3067,"Honolulu",AH6CP,communications_transponder,,http://www.poi-factory.com/node/2227,,,,444.9,,NFM,Public,AMATEUR,,,"offset=+"
WH6HR,-157.858444,21.3067,"Honolulu",WH6HR,communications_transponder,,http://www.poi-factory.com/node/2227,,,,448.625,,NFM,Public,AMATEUR,,,"offset=-"
WH6CZB,-157.858444,21.3067,"Honolulu",WH6CZB,communications_transponder,,http://www.poi-factory.com/node/2227,,,,448.7,,NFM,Public,AMATEUR,,,"offset=-"
KH6HFD,-157.854172,21.556719,"Kaaawa",KH6HFD,communications_transponder,,http://www.poi-factory.com/node/2227,,,,443.825,114.8,NFM,Public,AMATEUR,,,"offset=+"
KH6EJ,-157.785507,21.26918,"Kohala",KH6EJ,communications_transponder,,http://www.poi-factory.com/node/2227,,,,444.45,,NFM,Public,AMATEUR,,,"offset=+"
AH6HI,-157.738953,21.402868,"Kailua",AH6HI,communications_transponder,,http://www.poi-factory.com/node/2227,,,,444.425,,NFM,Public,AMATEUR,,,"offset=+"
WH6CZB,-157.738953,21.402868,"Kailua",WH6CZB,communications_transponder,,http://www.poi-factory.com/node/2227,,,,449.15,,NFM,Public,AMATEUR,,,"offset=-"
KH6HFD,-157.720642,21.348969,"Waimanalo",KH6HFD,communications_transponder,,http://www.poi-factory.com/node/2227,,,,443.4,114.8,NFM,Public,AMATEUR,,,"offset=+"
KH6HFD,-157.720642,21.348969,"Waimanalo",KH6HFD,communications_transponder,,http://www.poi-factory.com/node/2227,,,,443.5,114.8,NFM,Public,AMATEUR,,,"offset=+"
WH6CZB,-156.947998,21.225901,"Diamond",WH6CZB,communications_transponder,,http://www.poi-factory.com/node/2227,,,,Head,,NFM,Public,AMATEUR,,,"offset=444.5MHz"
AH6GR,-156.947998,21.225901,"Haleakala",AH6GR,communications_transponder,,http://www.poi-factory.com/node/2227,,,,442.75,,NFM,Public,AMATEUR,,,"offset=+"
AH6IF,-156.947998,21.225901,"Haleakala",AH6IF,communications_transponder,,http://www.poi-factory.com/node/2227,,,,443.15,,NFM,Public,AMATEUR,,,"offset=+"
WH6KO,-156.947998,21.225901,"Haleakala",WH6KO,communications_transponder,,http://www.poi-factory.com/node/2227,,,,443.8,,NFM,Public,AMATEUR,,,"offset=+"
KH6FV,-156.947998,21.225901,"Leeward",KH6FV,communications_transponder,,http://www.poi-factory.com/node/2227,,,,444.65,114.8,NFM,Public,AMATEUR,,,"offset=+"
KH6HFD,-156.947998,21.225901,"Manawahua",KH6HFD,communications_transponder,,http://www.poi-factory.com/node/2227,,,,443.475,114.8,NFM,Public,AMATEUR,,,"offset=+"
KH6HFD,-156.947998,21.225901,"Manawahua",KH6HFD,communications_transponder,,http://www.poi-factory.com/node/2227,,,,443.55,114.8,NFM,Public,AMATEUR,,,"offset=+"
KH7O,-156.947998,21.225901,"Maunakapu",KH7O,communications_transponder,,http://www.poi-factory.com/node/2227,,,,442.4,,NFM,Public,AMATEUR,,,"offset=+"
WH6CZB,-156.947998,21.225901,"Maunakapu",WH6CZB,communications_transponder,,http://www.poi-factory.com/node/2227,,,,444.1,,NFM,Public,AMATEUR,,,"offset=+"
KH6FV,-156.947998,21.225901,"North",KH6FV,communications_transponder,,http://www.poi-factory.com/node/2227,,,,Shore,114.8,NFM,Public,AMATEUR,,,"offset=444.55MHz"
NH6XO,-156.947998,21.225901,"North",NH6XO,communications_transponder,,http://www.poi-factory.com/node/2227,,,,Shore,,NFM,Public,AMATEUR,,,"offset=444.775MHz"
KH6HFD,-156.947998,21.225901,"Round",KH6HFD,communications_transponder,,http://www.poi-factory.com/node/2227,,,,Top,,NFM,Public,AMATEUR,,,"offset=443.425MHz"
KH6HFD,-156.947998,21.225901,"Round",KH6HFD,communications_transponder,,http://www.poi-factory.com/node/2227,,,,Top,114.8,NFM,Public,AMATEUR,,,"offset=443.825MHz"
KH6HFD,-156.947998,21.225901,"Round",KH6HFD,communications_transponder,,http://www.poi-factory.com/node/2227,,,,Top,114.8,NFM,Public,AMATEUR,,,"offset=444.85MHz"
KH6E,-156.947998,21.225901,"Weiku",KH6E,communications_transponder,,http://www.poi-factory.com/node/2227,,,,449.175,118.8,NFM,Public,AMATEUR,,,"offset=-"
KH6E,-156.947998,21.225901,"Weiku",KH6E,communications_transponder,,http://www.poi-factory.com/node/2227,,,,449.25,118.8,NFM,Public,AMATEUR,,,"offset=-"
AH6IF,-156.504547,20.890951,"Wailuku",AH6IF,communications_transponder,,http://www.poi-factory.com/node/2227,,,,444.95,,NFM,Public,AMATEUR,,,"offset=+"
AH6RF,-155.611694,20.103704,"Kona",AH6RF,communications_transponder,,http://www.poi-factory.com/node/2227,,,,444.9,,NFM,Public,AMATEUR,,,"offset=4.5MHz"
KH6EJ,-155.611099,20.109602,"Kau",KH6EJ,communications_transponder,,http://www.poi-factory.com/node/2227,,,,444.6,,NFM,Public,AMATEUR,,,"offset=+"
AH6RF,-155.130295,19.898771,"Hakalau",AH6RF,communications_transponder,,http://www.poi-factory.com/node/2227,,,,443.2,,NFM,Public,AMATEUR,,,"offset=+"
AH6JA,-155.090744,19.728956,"Hilo",AH6JA,communications_transponder,,http://www.poi-factory.com/node/2227,,,,444.15,,NFM,Public,AMATEUR,,,"offset=+"
KH6EJ,-155.042007,19.625532,"Keaau",KH6EJ,communications_transponder,,http://www.poi-factory.com/node/2227,,,,442.5,,NFM,Public,AMATEUR,,,"offset=+"
AL7LQ,-152.406418,57.78994,"Kodiak",AL7LQ,communications_transponder,,http://www.poi-factory.com/node/2227,,,,444.85,141.3,NFM,Public,AMATEUR,,,"offset=+"
WL7CVG,-149.899612,61.218552,"Anchorage",WL7CVG,communications_transponder,,http://www.poi-factory.com/node/2227,,,,443.3,103.5,NFM,Public,AMATEUR,,,"offset=+"
KL7AA,-149.899612,61.218552,"Anchorage",KL7AA,communications_transponder,,http://www.poi-factory.com/node/2227,,,,444.7,141.3,NFM,Public,AMATEUR,,,"offset=+"
KL7GG,-149.68721,61.254654,"Ft",KL7GG,communications_transponder,,http://www.poi-factory.com/node/2227,,,,Richardson,100,NFM,Public,AMATEUR,,,"offset=444.5MHz"
KL7GG,-149.568192,61.321602,"Eagle",KL7GG,communications_transponder,,http://www.poi-factory.com/node/2227,,,,River,100,NFM,Public,AMATEUR,,,"offset=444.1MHz"
WL7CVF,-149.112457,61.600216,"Palmer",WL7CVF,communications_transponder,,http://www.poi-factory.com/node/2227,,,,443.9,103.5,NFM,Public,AMATEUR,,,"offset=+"
KL7CC,-149.112457,61.600216,"Palmer",KL7CC,communications_transponder,,http://www.poi-factory.com/node/2227,,,,447.57,103.5,NFM,Public,AMATEUR,,,"offset=-300MHz"
KL7NO,-147.713776,64.838249,"Fairbanks",KL7NO,communications_transponder,,http://www.poi-factory.com/node/2227,,,,444.1,,NFM,Public,AMATEUR,,,"offset=+"
KL7KC,-147.713776,64.838249,"Fairbanks",KL7KC,communications_transponder,,http://www.poi-factory.com/node/2227,,,,444.8,103.5,NFM,Public,AMATEUR,,,"offset=+"
NL7V,-147.350906,64.751076,"North",NL7V,communications_transponder,,http://www.poi-factory.com/node/2227,,,,Pole,,NFM,Public,AMATEUR,,,"offset=443.64MHz"
KL7KC,-141.935944,64.073105,"Chicken",KL7KC,communications_transponder,,http://www.poi-factory.com/node/2227,,,,444.7,103.5,NFM,Public,AMATEUR,,,"offset=+"
KL7PF,-134.420868,58.301773,"Juneau",KL7PF,communications_transponder,,http://www.poi-factory.com/node/2227,,,,444.5,,NFM,Public,AMATEUR,,,"offset=+"
WA6AXO,-134.420868,58.301773,"Juneau",WA6AXO,communications_transponder,,http://www.poi-factory.com/node/2227,,,,444.7,,NFM,Public,AMATEUR,,,"offset=+"
K7PP,-124.383171,47.950569,"Forks",K7PP,communications_transponder,,http://www.poi-factory.com/node/2227,,,,443.4,114.8,NFM,Public,AMATEUR,,,"offset=+"
K7PFJ,-124.21524,43.36797,"Coos",K7PFJ,communications_transponder,,http://www.poi-factory.com/node/2227,,,,Bay,100,NFM,Public,AMATEUR,,,"offset=442.075MHz"
KD6GDZ,-124.20015,41.755989,"Crescent",KD6GDZ,communications_transponder,,http://www.poi-factory.com/node/2227,,,,City,100,NFM,Public,AMATEUR,,,"offset=443.05MHz"
AE6R,-124.162491,40.80151,"Eureka",AE6R,communications_transponder,,http://www.poi-factory.com/node/2227,,,,442,100,NFM,Public,AMATEUR,,,"offset=+"
NM7R,-124.053238,46.352631,"Long",NM7R,communications_transponder,,http://www.poi-factory.com/node/2227,,,,Beach,118.8,NFM,Public,AMATEUR,,,"offset=444.8MHz"
N7HQR,-124.051041,44.637161,"Newport",N7HQR,communications_transponder,,http://www.poi-factory.com/node/2227,,,,444.75,118.8,NFM,Public,AMATEUR,,,"offset=+"
N7UJK,-123.96059,46.98471,"Grays",N7UJK,communications_transponder,,http://www.poi-factory.com/node/2227,,,,Harbor,114.8,NFM,Public,AMATEUR,,,"offset=444.95MHz"
NM7R,-123.953239,46.631512,"Bay",NM7R,communications_transponder,,http://www.poi-factory.com/node/2227,,,,Center,118.8,NFM,Public,AMATEUR,,,"offset=444.4MHz"
N7HQR,-123.860443,45.230072,"Hebo",N7HQR,communications_transponder,,http://www.poi-factory.com/node/2227,,,,440.9,118.8,NFM,Public,AMATEUR,,,"offset=+"
W7LI,-123.860443,45.230072,"Hebo",W7LI,communications_transponder,,http://www.poi-factory.com/node/2227,,,,441.25,118.8,NFM,Public,AMATEUR,,,"offset=+"
N7BAG,-123.85763,46.2509,"Megler",N7BAG,communications_transponder,,http://www.poi-factory.com/node/2227,,,,Mtn,100,NFM,Public,AMATEUR,,,"offset=440.925MHz"
N7BAG,-123.85763,46.2509,"Megler",N7BAG,communications_transponder,,http://www.poi-factory.com/node/2227,,,,Mtn,100,NFM,Public,AMATEUR,,,"offset=444.5MHz"
N7BAG,-123.830147,46.187752,"Astoria",N7BAG,communications_transponder,,http://www.poi-factory.com/node/2227,,,,440.925,100,NFM,Public,AMATEUR,,,"offset=+"
N7BAG,-123.830147,46.187752,"Astoria",N7BAG,communications_transponder,,http://www.poi-factory.com/node/2227,,,,444.5,100,NFM,Public,AMATEUR,,,"offset=+"
W7FBM,-123.830147,46.187752,"Astoria",W7FBM,communications_transponder,,http://www.poi-factory.com/node/2227,,,,444.775,,NFM,Public,AMATEUR,,,"offset=+"
KA7DNK,-123.814362,46.976059,"Aberdeen",KA7DNK,communications_transponder,,http://www.poi-factory.com/node/2227,,,,444.6,100,NFM,Public,AMATEUR,,,"offset=+"
NM7R,-123.802368,46.66341,"South",NM7R,communications_transponder,,http://www.poi-factory.com/node/2227,,,,Bend,118.8,NFM,Public,AMATEUR,,,"offset=442.675MHz"
W7EOC,-123.771179,46.954781,"Cosmopolis",W7EOC,communications_transponder,,http://www.poi-factory.com/node/2227,,,,444.7,118.8,NFM,Public,AMATEUR,,,"offset=+"
KA7DNK,-123.730919,46.686649,"Raymond",KA7DNK,communications_transponder,,http://www.poi-factory.com/node/2227,,,,443.825,103.5,NFM,Public,AMATEUR,,,"offset=+"
W7SLA,-123.585159,44.030628,"Walton",W7SLA,communications_transponder,,http://www.poi-factory.com/node/2227,,,,443.05,162.2,NFM,Public,AMATEUR,,,"offset=+"
W6SON,-123.450569,38.71143,"Sebastopol",W6SON,communications_transponder,,http://www.poi-factory.com/node/2227,,,,441.375,88.5,NFM,Public,AMATEUR,,,"offset=+"
KJ7XE,-123.429543,48.11787,"Port",KJ7XE,communications_transponder,,http://www.poi-factory.com/node/2227,,,,Angeles,103.5,NFM,Public,AMATEUR,,,"offset=444.775MHz"
W7UVH,-123.37,47.31,"South",W7UVH,communications_transponder,,http://www.poi-factory.com/node/2227,,,,Mtn,100,NFM,Public,AMATEUR,,,"offset=441.925MHz"
WD6FGX,-123.353783,39.409328,"Willits",WD6FGX,communications_transponder,,http://www.poi-factory.com/node/2227,,,,444.5,103.5,NFM,Public,AMATEUR,,,"offset=+"
K7PFJ,-123.26091,44.5644,"Corvallis",K7PFJ,communications_transponder,,http://www.poi-factory.com/node/2227,,,,441.975,100,NFM,Public,AMATEUR,,,"offset=+"
N8GFO,-123.26091,44.5644,"Corvallis",N8GFO,communications_transponder,,http://www.poi-factory.com/node/2227,,,,442.3,162.2,NFM,Public,AMATEUR,,,"offset=+"
KB7TRP,-123.196732,45.21003,"McMinnville",KB7TRP,communications_transponder,,http://www.poi-factory.com/node/2227,,,,441.725,127.3,NFM,Public,AMATEUR,,,"offset=+"
KD7CNH,-123.196732,45.21003,"McMinnville",KD7CNH,communications_transponder,,http://www.poi-factory.com/node/2227,,,,441.8,100,NFM,Public,AMATEUR,,,"offset=+"
K7RPT,-123.110321,45.518368,"Forest",K7RPT,communications_transponder,,http://www.poi-factory.com/node/2227,,,,Grove,,NFM,Public,AMATEUR,,,"offset=442.325MHz"
K7RPT,-123.110321,45.518368,"Forest",K7RPT,communications_transponder,,http://www.poi-factory.com/node/2227,,,,Grove,,NFM,Public,AMATEUR,,,"offset=442.35MHz"
KJ7IY,-123.110321,45.518368,"Forest",KJ7IY,communications_transponder,,http://www.poi-factory.com/node/2227,,,,Grove,107.2,NFM,Public,AMATEUR,,,"offset=442.875MHz"
N7SK,-123.09964,47.215168,"Shelton",N7SK,communications_transponder,,http://www.poi-factory.com/node/2227,,,,443.25,100,NFM,Public,AMATEUR,,,"offset=+"
KD7HTE,-123.09964,47.215168,"Shelton",KD7HTE,communications_transponder,,http://www.poi-factory.com/node/2227,,,,444.45,100,NFM,Public,AMATEUR,,,"offset=+"
K7PFJ,-123.086548,44.052219,"Eugene",K7PFJ,communications_transponder,,http://www.poi-factory.com/node/2227,,,,442.125,100,NFM,Public,AMATEUR,,,"offset=+"
W7EXH,-123.086548,44.052219,"Eugene",W7EXH,communications_transponder,,http://www.poi-factory.com/node/2227,,,,442.9,,NFM,Public,AMATEUR,,,"offset=+"
W7EXH,-123.086548,44.052219,"Eugene",W7EXH,communications_transponder,,http://www.poi-factory.com/node/2227,,,,443.5,,NFM,Public,AMATEUR,,,"offset=+"
K7RPT,-123.086548,44.052219,"Eugene",K7RPT,communications_transponder,,http://www.poi-factory.com/node/2227,,,,443.8,,NFM,Public,AMATEUR,,,"offset=+"
N7QOR,-123.086548,44.052219,"Eugene",N7QOR,communications_transponder,,http://www.poi-factory.com/node/2227,,,,443.95,103.5,NFM,Public,AMATEUR,,,"offset=+"
W7ZQE,-123.057663,43.799068,"Cottage",W7ZQE,communications_transponder,,http://www.poi-factory.com/node/2227,,,,Grove,,NFM,Public,AMATEUR,,,"offset=440.85MHz"
K7PFJ,-123.057663,43.799068,"Cottage",K7PFJ,communications_transponder,,http://www.poi-factory.com/node/2227,,,,Grove,100,NFM,Public,AMATEUR,,,"offset=441.65MHz"
K7SLA,-123.057663,43.799068,"Cottage",K7SLA,communications_transponder,,http://www.poi-factory.com/node/2227,,,,Grove,,NFM,Public,AMATEUR,,,"offset=443.025MHz"
AB7F,-123.034286,44.94141,"Salem",AB7F,communications_transponder,,http://www.poi-factory.com/node/2227,,,,441.375,123,NFM,Public,AMATEUR,,,"offset=+"
KC7NOS,-123.034286,44.94141,"Salem",KC7NOS,communications_transponder,,http://www.poi-factory.com/node/2227,,,,441.7,,NFM,Public,AMATEUR,,,"offset=+"
K7HOG,-123.034286,44.94141,"Salem",K7HOG,communications_transponder,,http://www.poi-factory.com/node/2227,,,,441.825,,NFM,Public,AMATEUR,,,"offset=+"
W7SRA,-123.034286,44.94141,"Salem",W7SRA,communications_transponder,,http://www.poi-factory.com/node/2227,,,,443.725,,NFM,Public,AMATEUR,,,"offset=+"
K7RPT,-123.034286,44.94141,"Salem",K7RPT,communications_transponder,,http://www.poi-factory.com/node/2227,,,,444.125,,NFM,Public,AMATEUR,,,"offset=+"
WA7ABU,-123.034286,44.94141,"Salem",WA7ABU,communications_transponder,,http://www.poi-factory.com/node/2227,,,,444.25,,NFM,Public,AMATEUR,,,"offset=+"
K7KFM,-123.01649,48.53446,"San",K7KFM,communications_transponder,,http://www.poi-factory.com/node/2227,,,,Juan,103.5,NFM,Public,AMATEUR,,,"offset=none"
WO7O,-123.00089,47.56923,"Hood",WO7O,communications_transponder,,http://www.poi-factory.com/node/2227,,,,Canal,103.5,NFM,Public,AMATEUR,,,"offset=443.425MHz"
N6VUD,-122.995209,38.502731,"Guerneville",N6VUD,communications_transponder,,http://www.poi-factory.com/node/2227,,,,441.025,88.5,NFM,Public,AMATEUR,,,"offset=+"
K7AUO,-122.987991,45.521351,"Hillsboro",K7AUO,communications_transponder,,http://www.poi-factory.com/node/2227,,,,443.65,,NFM,Public,AMATEUR,,,"offset=+"
W5RFL,-122.97,48.007,"Blyn",W5RFL,communications_transponder,,http://www.poi-factory.com/node/2227,,,,Mtn,100,NFM,Public,AMATEUR,,,"offset=442.1MHz"
K7KFM,-122.961967,46.661438,"Chehalis",K7KFM,communications_transponder,,http://www.poi-factory.com/node/2227,,,,443.45,103.5,NFM,Public,AMATEUR,,,"offset=+"
AB7F,-122.95049,46.14683,"Longview",AB7F,communications_transponder,,http://www.poi-factory.com/node/2227,,,,440.375,123,NFM,Public,AMATEUR,,,"offset=+"
WR7JM,-122.943,47.75,"Buck",WR7JM,communications_transponder,,http://www.poi-factory.com/node/2227,,,,Mtn,103.5,NFM,Public,AMATEUR,,,"offset=444.3MHz"
N3EG,-122.935066,46.138622,"Longview",N3EG,communications_transponder,,http://www.poi-factory.com/node/2227,,,,441.7,114.8,NFM,Public,AMATEUR,,,"offset=+"
N3EG,-122.935066,46.138622,"Longview",N3EG,communications_transponder,,http://www.poi-factory.com/node/2227,,,,442.125,114.8,NFM,Public,AMATEUR,,,"offset=+"
K7OJI,-122.92215,45.408161,"Huntington",K7OJI,communications_transponder,,http://www.poi-factory.com/node/2227,,,,444.15,100,NFM,Public,AMATEUR,,,"offset=+"
WA6RHK,-122.915527,42.37645,"Central",WA6RHK,communications_transponder,,http://www.poi-factory.com/node/2227,,,,Point,,NFM,Public,AMATEUR,,,"offset=440.825MHz"
W7JM,-122.907532,46.147179,"Kelso",W7JM,communications_transponder,,http://www.poi-factory.com/node/2227,,,,440.525,114.8,NFM,Public,AMATEUR,,,"offset=+"
K7PG,-122.906189,46.574619,"Napavine",K7PG,communications_transponder,,http://www.poi-factory.com/node/2227,,,,444.075,123,NFM,Public,AMATEUR,,,"offset=+"
WA6OYK,-122.902489,38.707722,"Geyserville",WA6OYK,communications_transponder,,http://www.poi-factory.com/node/2227,,,,442.05,100,NFM,Public,AMATEUR,,,"offset=+"
WB0CZA,-122.88332,47.99815,"Maynard",WB0CZA,communications_transponder,,http://www.poi-factory.com/node/2227,,,,Hill,123,NFM,Public,AMATEUR,,,"offset=441.125MHz"
W7PSE,-122.88332,47.99815,"Maynard",W7PSE,communications_transponder,,http://www.poi-factory.com/node/2227,,,,Hill,103.5,NFM,Public,AMATEUR,,,"offset=442.425MHz"
N7BRU,-122.883,45.75,"Scappoose",N7BRU,communications_transponder,,http://www.poi-factory.com/node/2227,,,,444.625,,NFM,Public,AMATEUR,,,"offset=+"
WB7DFV,-122.844582,46.008671,"Kalama",WB7DFV,communications_transponder,,http://www.poi-factory.com/node/2227,,,,442.825,131.8,NFM,Public,AMATEUR,,,"offset=+"
W6LOU,-122.837822,38.977821,"Kelseyville",W6LOU,communications_transponder,,http://www.poi-factory.com/node/2227,,,,441.35,100,NFM,Public,AMATEUR,,,"offset=+"
N6GJM,-122.837822,38.977821,"Kelseyville",N6GJM,communications_transponder,,http://www.poi-factory.com/node/2227,,,,441.425,100,NFM,Public,AMATEUR,,,"offset=+"
W7UMH,-122.831175,48.677577,"Mt",W7UMH,communications_transponder,,http://www.poi-factory.com/node/2227,,,,Constitution,103.5,NFM,Public,AMATEUR,,,"offset=442.75MHz"
K7SKW,-122.831175,48.677577,"Mt",K7SKW,communications_transponder,,http://www.poi-factory.com/node/2227,,,,Constitution,103.5,NFM,Public,AMATEUR,,,"offset=444.05MHz"
WA6TIP,-122.8228,38.402248,"Sebastopol",WA6TIP,communications_transponder,,http://www.poi-factory.com/node/2227,,,,444.825,131.8,NFM,Public,AMATEUR,,,"offset=+"
WC7I,-122.819656,47.03381,"Lacey",WC7I,communications_transponder,,http://www.poi-factory.com/node/2227,,,,442.475,100,NFM,Public,AMATEUR,,,"offset=+"
W6TOZ,-122.808434,47.561599,"Green",W6TOZ,communications_transponder,,http://www.poi-factory.com/node/2227,,,,Mtn,103.5,NFM,Public,AMATEUR,,,"offset=443.675MHz"
K7WF,-122.806,46.1645,"Mt",K7WF,communications_transponder,,http://www.poi-factory.com/node/2227,,,,Brynion,114.8,NFM,Public,AMATEUR,,,"offset=444.125MHz"
KJ7IY,-122.802971,45.486839,"Beaverton",KJ7IY,communications_transponder,,http://www.poi-factory.com/node/2227,,,,444.325,107.2,NFM,Public,AMATEUR,,,"offset=+"
WW7RA,-122.783,47.55,"Gold",WW7RA,communications_transponder,,http://www.poi-factory.com/node/2227,,,,Mtn,103.5,NFM,Public,AMATEUR,,,"offset=442.65MHz"
WA7ABU,-122.781021,45.00592,"Silverton",WA7ABU,communications_transponder,,http://www.poi-factory.com/node/2227,,,,444.95,100,NFM,Public,AMATEUR,,,"offset=+"
KA7ZEM,-122.760033,48.116638,"Port",KA7ZEM,communications_transponder,,http://www.poi-factory.com/node/2227,,,,Townsend,103.5,NFM,Public,AMATEUR,,,"offset=441.325MHz"
KE6QDW,-122.721977,38.821362,"Cobb",KE6QDW,communications_transponder,,http://www.poi-factory.com/node/2227,,,,442.875,,NFM,Public,AMATEUR,,,"offset=+"
KD6CJQ,-122.713997,38.440411,"Santa",KD6CJQ,communications_transponder,,http://www.poi-factory.com/node/2227,,,,Rosa,88.5,NFM,Public,AMATEUR,,,"offset=440.2MHz"
K6EAR,-122.713997,38.440411,"Santa",K6EAR,communications_transponder,,http://www.poi-factory.com/node/2227,,,,Rosa,88.5,NFM,Public,AMATEUR,,,"offset=440.45MHz"
KV6A,-122.713997,38.440411,"Santa",KV6A,communications_transponder,,http://www.poi-factory.com/node/2227,,,,Rosa,88.5,NFM,Public,AMATEUR,,,"offset=441.3MHz"
W6SON,-122.713997,38.440411,"Santa",W6SON,communications_transponder,,http://www.poi-factory.com/node/2227,,,,Rosa,114.8,NFM,Public,AMATEUR,,,"offset=441.375MHz"
KD6RC,-122.713997,38.440411,"Santa",KD6RC,communications_transponder,,http://www.poi-factory.com/node/2227,,,,Rosa,82.5,NFM,Public,AMATEUR,,,"offset=444.75MHz"
KF6SZA,-122.713997,38.440411,"Santa",KF6SZA,communications_transponder,,http://www.poi-factory.com/node/2227,,,,Rosa,88.5,NFM,Public,AMATEUR,,,"offset=444.9MHz"
NT7H,-122.704,46.854,"Crawford",NT7H,communications_transponder,,http://www.poi-factory.com/node/2227,,,,Mtn,103.5,NFM,Public,AMATEUR,,,"offset=441.4MHz"
AB7F,-122.7,45.633,"Vancouver",AB7F,communications_transponder,,http://www.poi-factory.com/node/2227,,,,442.375,123,NFM,Public,AMATEUR,,,"offset=+"
KB7APU,-122.7,45.633,"Vancouver",KB7APU,communications_transponder,,http://www.poi-factory.com/node/2227,,,,443.975,123,NFM,Public,AMATEUR,,,"offset=+"
N7XMT,-122.7,45.633,"Vancouver",N7XMT,communications_transponder,,http://www.poi-factory.com/node/2227,,,,444.55,131.8,NFM,Public,AMATEUR,,,"offset=+"
N7PL,-122.682068,47.925652,"Port",N7PL,communications_transponder,,http://www.poi-factory.com/node/2227,,,,Ludlow,103.5,NFM,Public,AMATEUR,,,"offset=441.575MHz"
WB2QHS,-122.675346,45.52383,"Portland",WB2QHS,communications_transponder,,http://www.poi-factory.com/node/2227,,,,440.025,,NFM,Public,AMATEUR,,,"offset=+"
WB7DZG,-122.675346,45.52383,"Portland",WB7DZG,communications_transponder,,http://www.poi-factory.com/node/2227,,,,442.925,,NFM,Public,AMATEUR,,,"offset=+"
KJ7IY,-122.675346,45.52383,"Portland",KJ7IY,communications_transponder,,http://www.poi-factory.com/node/2227,,,,443.15,107.2,NFM,Public,AMATEUR,,,"offset=+"
WA7HAA,-122.675346,45.52383,"Portland",WA7HAA,communications_transponder,,http://www.poi-factory.com/node/2227,,,,443.225,107.2,NFM,Public,AMATEUR,,,"offset=+"
KC7TP,-122.675346,45.52383,"Portland",KC7TP,communications_transponder,,http://www.poi-factory.com/node/2227,,,,443.55,,NFM,Public,AMATEUR,,,"offset=+"
W7DTV,-122.675346,45.52383,"Portland",W7DTV,communications_transponder,,http://www.poi-factory.com/node/2227,,,,443.625,,NFM,Public,AMATEUR,,,"offset=+"
N7DA,-122.675346,45.52383,"Portland",N7DA,communications_transponder,,http://www.poi-factory.com/node/2227,,,,443.9,,NFM,Public,AMATEUR,,,"offset=+"
N7QOR,-122.675346,45.52383,"Portland",N7QOR,communications_transponder,,http://www.poi-factory.com/node/2227,,,,443.95,103.5,NFM,Public,AMATEUR,,,"offset=+"
K0HSU,-122.675346,45.52383,"Portland",K0HSU,communications_transponder,,http://www.poi-factory.com/node/2227,,,,444,,NFM,Public,AMATEUR,,,"offset=+"
KG0D,-122.675346,45.52383,"Portland",KG0D,communications_transponder,,http://www.poi-factory.com/node/2227,,,,444.575,,NFM,Public,AMATEUR,,,"offset=+"
N7ROD,-122.668854,45.4212,"Portland",N7ROD,communications_transponder,,http://www.poi-factory.com/node/2227,,,,440.275,,NFM,Public,AMATEUR,,,"offset=+"
KB7OYI,-122.668854,45.4212,"Portland",KB7OYI,communications_transponder,,http://www.poi-factory.com/node/2227,,,,440.35,107.2,NFM,Public,AMATEUR,,,"offset=+"
N7YDI,-122.667,45.4167,"Lake",N7YDI,communications_transponder,,http://www.poi-factory.com/node/2227,,,,Oswego,103.5,NFM,Public,AMATEUR,,,"offset=442.9MHz"
W7RDK,-122.667,45.4167,"Lake",W7RDK,communications_transponder,,http://www.poi-factory.com/node/2227,,,,Oswego,,NFM,Public,AMATEUR,,,"offset=443.825MHz"
KR7IS,-122.65,45.367,"WestLinn",KR7IS,communications_transponder,,http://www.poi-factory.com/node/2227,,,,442.525,,NFM,Public,AMATEUR,,,"offset=+"
W7CPU,-122.645088,47.093849,"Dupont",W7CPU,communications_transponder,,http://www.poi-factory.com/node/2227,,,,442.925,110.9,NFM,Public,AMATEUR,,,"offset=+"
AA7SS,-122.640839,48.293198,"Oak",AA7SS,communications_transponder,,http://www.poi-factory.com/node/2227,,,,Harbor,123,NFM,Public,AMATEUR,,,"offset=441.175MHz"
K7BTZ,-122.636337,47.540539,"Port",K7BTZ,communications_transponder,,http://www.poi-factory.com/node/2227,,,,Orchard,100,NFM,Public,AMATEUR,,,"offset=444.1MHz"
KE6YJH,-122.632492,41.73568,"Yreka",KE6YJH,communications_transponder,,http://www.poi-factory.com/node/2227,,,,443.75,100,NFM,Public,AMATEUR,,,"offset=+"
AB6MF,-122.632492,41.73568,"Yreka",AB6MF,communications_transponder,,http://www.poi-factory.com/node/2227,,,,444.9,100,NFM,Public,AMATEUR,,,"offset=+"
AA7SS,-122.630219,47.566528,"Bremerton",AA7SS,communications_transponder,,http://www.poi-factory.com/node/2227,,,,440.6,103.5,NFM,Public,AMATEUR,,,"offset=+"
N7XOJ,-122.630219,47.566528,"Bremerton",N7XOJ,communications_transponder,,http://www.poi-factory.com/node/2227,,,,441.275,110.9,NFM,Public,AMATEUR,,,"offset=+"
N7NVP,-122.630219,47.566528,"Bremerton",N7NVP,communications_transponder,,http://www.poi-factory.com/node/2227,,,,444.275,110.9,NFM,Public,AMATEUR,,,"offset=+"
W7PSE,-122.630219,47.566528,"Green",W7PSE,communications_transponder,,http://www.poi-factory.com/node/2227,,,,Mtn,103.5,NFM,Public,AMATEUR,,,"offset=441.75MHz"
W7PSE,-122.625742,48.453878,"Mt",W7PSE,communications_transponder,,http://www.poi-factory.com/node/2227,,,,Erie,103.5,NFM,Public,AMATEUR,,,"offset=441.7MHz"
KA6JJW,-122.624939,38.958271,"Clear",KA6JJW,communications_transponder,,http://www.poi-factory.com/node/2227,,,,Lake,100,NFM,Public,AMATEUR,,,"offset=441.1MHz"
N7PIR,-122.612045,45.365971,"Portland",N7PIR,communications_transponder,,http://www.poi-factory.com/node/2227,,,,440.45,103.5,NFM,Public,AMATEUR,,,"offset=+"
WQ7A,-122.604523,46.941902,"Yelm",WQ7A,communications_transponder,,http://www.poi-factory.com/node/2227,,,,444.925,103.5,NFM,Public,AMATEUR,,,"offset=+"
KS7O,-122.604347,45.357189,"Portland",KS7O,communications_transponder,,http://www.poi-factory.com/node/2227,,,,440.7,100,NFM,Public,AMATEUR,,,"offset=+"
KB7APU,-122.604347,45.357189,"Portland",KB7APU,communications_transponder,,http://www.poi-factory.com/node/2227,,,,440.775,,NFM,Public,AMATEUR,,,"offset=+"
WB7QFD,-122.6,45.35,"Oregon",WB7QFD,communications_transponder,,http://www.poi-factory.com/node/2227,,,,City,,NFM,Public,AMATEUR,,,"offset=440.05MHz"
W6CO,-122.578018,38.578339,"Calistoga",W6CO,communications_transponder,,http://www.poi-factory.com/node/2227,,,,440.05,127.3,NFM,Public,AMATEUR,,,"offset=+"
W6CO,-122.578018,38.578339,"Calistoga",W6CO,communications_transponder,,http://www.poi-factory.com/node/2227,,,,441.9,151.4,NFM,Public,AMATEUR,,,"offset=+"
K7RPT,-122.569031,45.407139,"Portland",K7RPT,communications_transponder,,http://www.poi-factory.com/node/2227,,,,442.225,,NFM,Public,AMATEUR,,,"offset=+"
N6MVT,-122.543411,39.375832,"Stonyford",N6MVT,communications_transponder,,http://www.poi-factory.com/node/2227,,,,443.075,114.8,NFM,Public,AMATEUR,,,"offset=+"
K6BIQ,-122.543411,39.375832,"Stonyford",K6BIQ,communications_transponder,,http://www.poi-factory.com/node/2227,,,,443.875,100,NFM,Public,AMATEUR,,,"offset=+"
K6GWE,-122.542267,37.906059,"Mill",K6GWE,communications_transponder,,http://www.poi-factory.com/node/2227,,,,Valley,179.9,NFM,Public,AMATEUR,,,"offset=443.25MHz"
WR7HE,-122.542,47.429,"Olalla",WR7HE,communications_transponder,,http://www.poi-factory.com/node/2227,,,,440.225,103.5,NFM,Public,AMATEUR,,,"offset=+"
N7PIR,-122.5333,45.417,"Clackamas",N7PIR,communications_transponder,,http://www.poi-factory.com/node/2227,,,,443.7,146.2,NFM,Public,AMATEUR,,,"offset=+"
AB6WQ,-122.529617,37.972267,"Santa",AB6WQ,communications_transponder,,http://www.poi-factory.com/node/2227,,,,Anita,131.8,NFM,Public,AMATEUR,,,"offset=none"
W7NPC,-122.521,47.647,"Bainbridge",W7NPC,communications_transponder,,http://www.poi-factory.com/node/2227,,,,Island,103.5,NFM,Public,AMATEUR,,,"offset=444.475MHz"
N7FYU,-122.4869,48.759682,"Bellingham",N7FYU,communications_transponder,,http://www.poi-factory.com/node/2227,,,,441.925,103.5,NFM,Public,AMATEUR,,,"offset=+"
WA6TOW,-122.485779,37.613628,"Pacifica",WA6TOW,communications_transponder,,http://www.poi-factory.com/node/2227,,,,441.075,114.8,NFM,Public,AMATEUR,,,"offset=+"
KC7MAP,-122.480339,48.184151,"Camano",KC7MAP,communications_transponder,,http://www.poi-factory.com/node/2227,,,,Island,103.5,NFM,Public,AMATEUR,,,"offset=441.05MHz"
K7SKW,-122.47,48.802,"King",K7SKW,communications_transponder,,http://www.poi-factory.com/node/2227,,,,Mtn,103.5,NFM,Public,AMATEUR,,,"offset=443.65MHz"
KC6PGV,-122.461037,37.705841,"DalyCity",KC6PGV,communications_transponder,,http://www.poi-factory.com/node/2227,,,,442.375,156.7,NFM,Public,AMATEUR,,,"offset=+"
KF6REK,-122.461037,37.705841,"DalyCity",KF6REK,communications_transponder,,http://www.poi-factory.com/node/2227,,,,442.475,114.8,NFM,Public,AMATEUR,,,"offset=+"
N6MNV,-122.456741,38.291348,"So",N6MNV,communications_transponder,,http://www.poi-factory.com/node/2227,,,,San,173.8,NFM,Public,AMATEUR,,,"offset=none"
K7PFJ,-122.45,43.733,"Oakridge",K7PFJ,communications_transponder,,http://www.poi-factory.com/node/2227,,,,441.675,100,NFM,Public,AMATEUR,,,"offset=+"
W7DK,-122.442886,47.25293,"Tacoma",W7DK,communications_transponder,,http://www.poi-factory.com/node/2227,,,,440.625,103.5,NFM,Public,AMATEUR,,,"offset=+"
WB0CZA,-122.442886,47.25293,"Tacoma",WB0CZA,communications_transponder,,http://www.poi-factory.com/node/2227,,,,441.125,123,NFM,Public,AMATEUR,,,"offset=+"
W7NTF,-122.442886,47.25293,"Tacoma",W7NTF,communications_transponder,,http://www.poi-factory.com/node/2227,,,,441.375,103.5,NFM,Public,AMATEUR,,,"offset=+"
KB7RII,-122.442886,47.25293,"Tacoma",KB7RII,communications_transponder,,http://www.poi-factory.com/node/2227,,,,441.9,173.8,NFM,Public,AMATEUR,,,"offset=+"
KE7LE,-122.442886,47.25293,"Tacoma",KE7LE,communications_transponder,,http://www.poi-factory.com/node/2227,,,,442.45,103.5,NFM,Public,AMATEUR,,,"offset=+"
N7WGR,-122.442886,47.25293,"Tacoma",N7WGR,communications_transponder,,http://www.poi-factory.com/node/2227,,,,443.825,88.5,NFM,Public,AMATEUR,,,"offset=+"
W7PFR,-122.442886,47.25293,"Tacoma",W7PFR,communications_transponder,,http://www.poi-factory.com/node/2227,,,,443.975,151.4,NFM,Public,AMATEUR,,,"offset=+"
K7HW,-122.442886,47.25293,"Tacoma",K7HW,communications_transponder,,http://www.poi-factory.com/node/2227,,,,444.175,103.5,NFM,Public,AMATEUR,,,"offset=+"
KB7CNN,-122.442886,47.25293,"Tacoma",KB7CNN,communications_transponder,,http://www.poi-factory.com/node/2227,,,,444.75,192.8,NFM,Public,AMATEUR,,,"offset=+"
W6EE,-122.417068,37.7742,"San",W6EE,communications_transponder,,http://www.poi-factory.com/node/2227,,,,Francisco,85.4,NFM,Public,AMATEUR,,,"offset=441.45MHz"
WA6GG,-122.417068,37.7742,"San",WA6GG,communications_transponder,,http://www.poi-factory.com/node/2227,,,,Francisco,127.3,NFM,Public,AMATEUR,,,"offset=442.05MHz"
N6MVT,-122.417068,37.7742,"San",N6MVT,communications_transponder,,http://www.poi-factory.com/node/2227,,,,Francisco,100,NFM,Public,AMATEUR,,,"offset=442.075MHz"
W6TP,-122.417068,37.7742,"San",W6TP,communications_transponder,,http://www.poi-factory.com/node/2227,,,,Francisco,114.8,NFM,Public,AMATEUR,,,"offset=443.1MHz"
WB6VNP,-122.417068,37.7742,"San",WB6VNP,communications_transponder,,http://www.poi-factory.com/node/2227,,,,Francisco,88.5,NFM,Public,AMATEUR,,,"offset=444.525MHz"
K6TW,-122.417068,37.7742,"San",K6TW,communications_transponder,,http://www.poi-factory.com/node/2227,,,,Francisco,103.5,NFM,Public,AMATEUR,,,"offset=444.725MHz"
K7WWG,-122.4,45.167,"Colton",K7WWG,communications_transponder,,http://www.poi-factory.com/node/2227,,,,440.25,,NFM,Public,AMATEUR,,,"offset=+"
KB6HWZ,-122.390419,40.586693,"Redding",KB6HWZ,communications_transponder,,http://www.poi-factory.com/node/2227,,,,440.95,131.8,NFM,Public,AMATEUR,,,"offset=+"
WR6TV,-122.390419,40.586693,"Redding",WR6TV,communications_transponder,,http://www.poi-factory.com/node/2227,,,,443.05,110.9,NFM,Public,AMATEUR,,,"offset=+"
NC6SV,-122.390419,40.586693,"Redding",NC6SV,communications_transponder,,http://www.poi-factory.com/node/2227,,,,444.55,100,NFM,Public,AMATEUR,,,"offset=+"
KD6NOL,-122.390419,40.586693,"Redding",KD6NOL,communications_transponder,,http://www.poi-factory.com/node/2227,,,,444.625,107.2,NFM,Public,AMATEUR,,,"offset=+"
K6HSV,-122.386002,37.59848,"Millbrae",K6HSV,communications_transponder,,http://www.poi-factory.com/node/2227,,,,442.1,107.2,NFM,Public,AMATEUR,,,"offset=+"
WA6DUR,-122.346512,37.934879,"Richmond",WA6DUR,communications_transponder,,http://www.poi-factory.com/node/2227,,,,442.15,107.2,NFM,Public,AMATEUR,,,"offset=+"
KC7ONX,-122.34444,47.7569,"Shoreline",KC7ONX,communications_transponder,,http://www.poi-factory.com/node/2227,,,,440.3,103.5,NFM,Public,AMATEUR,,,"offset=+"
WB7UFR,-122.34444,47.7569,"Shoreline",WB7UFR,communications_transponder,,http://www.poi-factory.com/node/2227,,,,444.725,,NFM,Public,AMATEUR,,,"offset=+"
K6GWE,-122.344131,37.962078,"San",K6GWE,communications_transponder,,http://www.poi-factory.com/node/2227,,,,Rafael,82.5,NFM,Public,AMATEUR,,,"offset=443.525MHz"
W7ACS,-122.329437,47.60577,"Seattle",W7ACS,communications_transponder,,http://www.poi-factory.com/node/2227,,,,440.775,,NFM,Public,AMATEUR,,,"offset=+"
W7AW,-122.329437,47.60577,"Seattle",W7AW,communications_transponder,,http://www.poi-factory.com/node/2227,,,,441.8,141.3,NFM,Public,AMATEUR,,,"offset=+"
NV7P,-122.329437,47.60577,"Seattle",NV7P,communications_transponder,,http://www.poi-factory.com/node/2227,,,,441.825,,NFM,Public,AMATEUR,,,"offset=+"
WB7AHT,-122.329437,47.60577,"Seattle",WB7AHT,communications_transponder,,http://www.poi-factory.com/node/2227,,,,442.825,103.5,NFM,Public,AMATEUR,,,"offset=+"
WA7LZO,-122.329437,47.60577,"Seattle",WA7LZO,communications_transponder,,http://www.poi-factory.com/node/2227,,,,442.9,103.5,NFM,Public,AMATEUR,,,"offset=+"
N7IO,-122.329437,47.60577,"Seattle",N7IO,communications_transponder,,http://www.poi-factory.com/node/2227,,,,443.375,103.5,NFM,Public,AMATEUR,,,"offset=+"
W7SRZ,-122.329437,47.60577,"Seattle",W7SRZ,communications_transponder,,http://www.poi-factory.com/node/2227,,,,443.55,103.5,NFM,Public,AMATEUR,,,"offset=+"
K7SPG,-122.329437,47.60577,"Seattle",K7SPG,communications_transponder,,http://www.poi-factory.com/node/2227,,,,444,103.5,NFM,Public,AMATEUR,,,"offset=+"
K7MLR,-122.329437,47.60577,"Seattle",K7MLR,communications_transponder,,http://www.poi-factory.com/node/2227,,,,444.2,100,NFM,Public,AMATEUR,,,"offset=+"
KC7LFW,-122.329437,47.60577,"Seattle",KC7LFW,communications_transponder,,http://www.poi-factory.com/node/2227,,,,444.225,123,NFM,Public,AMATEUR,,,"offset=+"
AJ7JA,-122.329437,47.60577,"Seattle",AJ7JA,communications_transponder,,http://www.poi-factory.com/node/2227,,,,444.375,203.5,NFM,Public,AMATEUR,,,"offset=+"
WA7QIH,-122.329437,47.60577,"Seattle",WA7QIH,communications_transponder,,http://www.poi-factory.com/node/2227,,,,444.7,103.5,NFM,Public,AMATEUR,,,"offset=+"
WD6EZC,-122.324432,37.56271,"San",WD6EZC,communications_transponder,,http://www.poi-factory.com/node/2227,,,,Pablo,82.5,NFM,Public,AMATEUR,,,"offset=444.275MHz"
KB7RZZ,-122.315079,47.82114,"Lynnwood",KB7RZZ,communications_transponder,,http://www.poi-factory.com/node/2227,,,,441.875,103.5,NFM,Public,AMATEUR,,,"offset=+"
KJ7FD,-122.31113,47.78804,"Mt",KJ7FD,communications_transponder,,http://www.poi-factory.com/node/2227,,,,Lake,127.3,NFM,Public,AMATEUR,,,"offset=none"
KB7ZTC,-122.31113,47.78804,"Mt",KB7ZTC,communications_transponder,,http://www.poi-factory.com/node/2227,,,,Lake,103.5,NFM,Public,AMATEUR,,,"offset=none"
WA7FW,-122.31073,47.322369,"Federal",WA7FW,communications_transponder,,http://www.poi-factory.com/node/2227,,,,Way,103.5,NFM,Public,AMATEUR,,,"offset=442.95MHz"
W7FLY,-122.302956,47.94479,"Mukelteo",W7FLY,communications_transponder,,http://www.poi-factory.com/node/2227,,,,443.925,100,NFM,Public,AMATEUR,,,"offset=+"
W7MYR,-122.3,47.04,"Graham",W7MYR,communications_transponder,,http://www.poi-factory.com/node/2227,,,,442.35,141.3,NFM,Public,AMATEUR,,,"offset=+"
N7BUW,-122.3,47.04,"Graham",N7BUW,communications_transponder,,http://www.poi-factory.com/node/2227,,,,444.675,127.3,NFM,Public,AMATEUR,,,"offset=+"
NV7P,-122.294777,47.053101,"Puyallup",NV7P,communications_transponder,,http://www.poi-factory.com/node/2227,,,,442.125,,NFM,Public,AMATEUR,,,"offset=+"
N7WGR,-122.294777,47.053101,"Puyallup",N7WGR,communications_transponder,,http://www.poi-factory.com/node/2227,,,,442.7,88.5,NFM,Public,AMATEUR,,,"offset=+"
W7MYR,-122.294777,47.053101,"Puyallup",W7MYR,communications_transponder,,http://www.poi-factory.com/node/2227,,,,442.85,141.3,NFM,Public,AMATEUR,,,"offset=+"
KC7BNP,-122.289841,48.068279,"Tulalip",KC7BNP,communications_transponder,,http://www.poi-factory.com/node/2227,,,,443,127.3,NFM,Public,AMATEUR,,,"offset=+"
W6CO,-122.284821,38.297501,"Napa",W6CO,communications_transponder,,http://www.poi-factory.com/node/2227,,,,440.05,151.4,NFM,Public,AMATEUR,,,"offset=+"
WA7G,-122.284821,38.297501,"Napa",WA7G,communications_transponder,,http://www.poi-factory.com/node/2227,,,,441.675,107.2,NFM,Public,AMATEUR,,,"offset=+"
W6CO,-122.284821,38.297501,"Napa",W6CO,communications_transponder,,http://www.poi-factory.com/node/2227,,,,441.8,151.4,NFM,Public,AMATEUR,,,"offset=+"
N6TKW,-122.284821,38.297501,"Napa",N6TKW,communications_transponder,,http://www.poi-factory.com/node/2227,,,,444.175,151.4,NFM,Public,AMATEUR,,,"offset=+"
W7GVJ,-122.28,47.757,"Lake",W7GVJ,communications_transponder,,http://www.poi-factory.com/node/2227,,,,Forest,100,NFM,Public,AMATEUR,,,"offset=none"
KB7WVX,-122.2752,45.5434,"Rooster",KB7WVX,communications_transponder,,http://www.poi-factory.com/node/2227,,,,Rock,110.9,NFM,Public,AMATEUR,,,"offset=444.975MHz"
K6HN,-122.273529,37.521118,"Belmont",K6HN,communications_transponder,,http://www.poi-factory.com/node/2227,,,,440.075,114.8,NFM,Public,AMATEUR,,,"offset=+"
K7IJ,-122.271912,37.872509,"Berkeley",K7IJ,communications_transponder,,http://www.poi-factory.com/node/2227,,,,440.175,131.8,NFM,Public,AMATEUR,,,"offset=+"
WA2UNP,-122.271912,37.872509,"Berkeley",WA2UNP,communications_transponder,,http://www.poi-factory.com/node/2227,,,,440.9,131.8,NFM,Public,AMATEUR,,,"offset=+"
WA6ZTY,-122.271912,37.872509,"Berkeley",WA6ZTY,communications_transponder,,http://www.poi-factory.com/node/2227,,,,442.275,100,NFM,Public,AMATEUR,,,"offset=+"
WB6JKV,-122.271912,37.872509,"Berkeley",WB6JKV,communications_transponder,,http://www.poi-factory.com/node/2227,,,,443.325,100,NFM,Public,AMATEUR,,,"offset=+"
KM6EF,-122.269852,37.803829,"Oakland",KM6EF,communications_transponder,,http://www.poi-factory.com/node/2227,,,,440.35,123,NFM,Public,AMATEUR,,,"offset=+"
N6TC,-122.269852,37.803829,"Oakland",N6TC,communications_transponder,,http://www.poi-factory.com/node/2227,,,,440.525,141.3,NFM,Public,AMATEUR,,,"offset=+"
W6EBW,-122.269852,37.803829,"Oakland",W6EBW,communications_transponder,,http://www.poi-factory.com/node/2227,,,,440.575,118.8,NFM,Public,AMATEUR,,,"offset=+"
WT6L,-122.269852,37.803829,"Oakland",WT6L,communications_transponder,,http://www.poi-factory.com/node/2227,,,,441.425,114.8,NFM,Public,AMATEUR,,,"offset=+"
WB6NDJ,-122.269852,37.803829,"Oakland",WB6NDJ,communications_transponder,,http://www.poi-factory.com/node/2227,,,,442.4,77,NFM,Public,AMATEUR,,,"offset=+"
WB6SHU,-122.269852,37.803829,"Oakland",WB6SHU,communications_transponder,,http://www.poi-factory.com/node/2227,,,,443.375,114.8,NFM,Public,AMATEUR,,,"offset=+"
N6QOP,-122.269852,37.803829,"Oakland",N6QOP,communications_transponder,,http://www.poi-factory.com/node/2227,,,,443.475,100,NFM,Public,AMATEUR,,,"offset=+"
WB6TCS,-122.269852,37.803829,"Oakland",WB6TCS,communications_transponder,,http://www.poi-factory.com/node/2227,,,,444.25,100,NFM,Public,AMATEUR,,,"offset=+"
KB7DBD,-122.267,45.4,"Sandy",KB7DBD,communications_transponder,,http://www.poi-factory.com/node/2227,,,,440.125,,NFM,Public,AMATEUR,,,"offset=+"
W7RY,-122.267,45.4,"Sandy",W7RY,communications_transponder,,http://www.poi-factory.com/node/2227,,,,443.25,,NFM,Public,AMATEUR,,,"offset=+"
KR7IS,-122.267,45.4,"Sandy",KR7IS,communications_transponder,,http://www.poi-factory.com/node/2227,,,,443.425,107.2,NFM,Public,AMATEUR,,,"offset=+"
N6ZX,-122.251572,37.43071,"Woodside",N6ZX,communications_transponder,,http://www.poi-factory.com/node/2227,,,,440.45,107.2,NFM,Public,AMATEUR,,,"offset=+"
WB6ECE,-122.251572,37.43071,"Woodside",WB6ECE,communications_transponder,,http://www.poi-factory.com/node/2227,,,,441.3,123,NFM,Public,AMATEUR,,,"offset=+"
N7KP,-122.248,47.76,"Kenmore",N7KP,communications_transponder,,http://www.poi-factory.com/node/2227,,,,443.6,123,NFM,Public,AMATEUR,,,"offset=+"
WD6GGW,-122.236221,37.486111,"Redwood",WD6GGW,communications_transponder,,http://www.poi-factory.com/node/2227,,,,City,114.8,NFM,Public,AMATEUR,,,"offset=441.4MHz"
K6MPN,-122.236221,37.486111,"Redwood",K6MPN,communications_transponder,,http://www.poi-factory.com/node/2227,,,,City,100,NFM,Public,AMATEUR,,,"offset=444.5MHz"
W6QWN,-122.234627,40.17878,"Red",W6QWN,communications_transponder,,http://www.poi-factory.com/node/2227,,,,Bluff,110.9,NFM,Public,AMATEUR,,,"offset=442.4MHz"
N6YCK,-122.234627,40.17878,"Red",N6YCK,communications_transponder,,http://www.poi-factory.com/node/2227,,,,Bluff,100,NFM,Public,AMATEUR,,,"offset=443.1MHz"
W7IAG,-122.221481,47.570908,"Mercer",W7IAG,communications_transponder,,http://www.poi-factory.com/node/2227,,,,Island,103.5,NFM,Public,AMATEUR,,,"offset=440.15MHz"
KA7PMC,-122.221481,47.570908,"Mercer",KA7PMC,communications_transponder,,http://www.poi-factory.com/node/2227,,,,Island,103.5,NFM,Public,AMATEUR,,,"offset=440.175MHz"
AA7UJ,-122.208443,47.682049,"Kirkland",AA7UJ,communications_transponder,,http://www.poi-factory.com/node/2227,,,,441.075,103.5,NFM,Public,AMATEUR,,,"offset=+"
K7OV,-122.2084,47.459,"Renton",K7OV,communications_transponder,,http://www.poi-factory.com/node/2227,,,,444.85,103.5,NFM,Public,AMATEUR,,,"offset=+"
WB0CZA,-122.203232,47.761898,"Bothell",WB0CZA,communications_transponder,,http://www.poi-factory.com/node/2227,,,,441.125,123,NFM,Public,AMATEUR,,,"offset=+"
WW7MST,-122.203232,47.761898,"Bothell",WW7MST,communications_transponder,,http://www.poi-factory.com/node/2227,,,,444.825,103.5,NFM,Public,AMATEUR,,,"offset=+"
KD7BQH,-122.201477,47.97794,"Everett",KD7BQH,communications_transponder,,http://www.poi-factory.com/node/2227,,,,441.15,123,NFM,Public,AMATEUR,,,"offset=+"
K5IN,-122.201477,47.97794,"Everett",K5IN,communications_transponder,,http://www.poi-factory.com/node/2227,,,,441.95,103.5,NFM,Public,AMATEUR,,,"offset=+"
K5IN,-122.201477,47.97794,"Everett",K5IN,communications_transponder,,http://www.poi-factory.com/node/2227,,,,442.5,103.5,NFM,Public,AMATEUR,,,"offset=+"
KA7BZA,-122.201477,47.97794,"Everett",KA7BZA,communications_transponder,,http://www.poi-factory.com/node/2227,,,,443.35,103.5,NFM,Public,AMATEUR,,,"offset=+"
WA7LAW,-122.201477,47.97794,"Everett",WA7LAW,communications_transponder,,http://www.poi-factory.com/node/2227,,,,444.575,103.5,NFM,Public,AMATEUR,,,"offset=+"
KC7IYE,-122.198853,47.611938,"Bellevue",KC7IYE,communications_transponder,,http://www.poi-factory.com/node/2227,,,,441.1,156.7,NFM,Public,AMATEUR,,,"offset=+"
K7WHX,-122.198853,47.611938,"Bellevue",K7WHX,communications_transponder,,http://www.poi-factory.com/node/2227,,,,444.6,103.5,NFM,Public,AMATEUR,,,"offset=+"
K6BIQ,-122.192207,39.523121,"Willows",K6BIQ,communications_transponder,,http://www.poi-factory.com/node/2227,,,,444.2,74.4,NFM,Public,AMATEUR,,,"offset=+"
N6NMZ,-122.190781,39.275211,"Maxwell",N6NMZ,communications_transponder,,http://www.poi-factory.com/node/2227,,,,442.275,100,NFM,Public,AMATEUR,,,"offset=+"
WA6BZS,-122.178436,37.876629,"Orinda",WA6BZS,communications_transponder,,http://www.poi-factory.com/node/2227,,,,441.975,100,NFM,Public,AMATEUR,,,"offset=+"
N6QOP,-122.178436,37.876629,"Orinda",N6QOP,communications_transponder,,http://www.poi-factory.com/node/2227,,,,443.05,114.8,NFM,Public,AMATEUR,,,"offset=+"
KE6PTT,-122.178436,37.876629,"Orinda",KE6PTT,communications_transponder,,http://www.poi-factory.com/node/2227,,,,444,100,NFM,Public,AMATEUR,,,"offset=+"
N7UMO,-122.175308,48.0508,"Marysville",N7UMO,communications_transponder,,http://www.poi-factory.com/node/2227,,,,443.125,110.9,NFM,Public,AMATEUR,,,"offset=+"
W7PSE,-122.164,46.98,"Electron",W7PSE,communications_transponder,,http://www.poi-factory.com/node/2227,,,,441.725,103.5,NFM,Public,AMATEUR,,,"offset=+"
WA7TZY,-122.161896,47.753708,"Woodinville",WA7TZY,communications_transponder,,http://www.poi-factory.com/node/2227,,,,442.775,100,NFM,Public,AMATEUR,,,"offset=+"
KR6BEN,-122.160736,38.05051,"Benicia",KR6BEN,communications_transponder,,http://www.poi-factory.com/node/2227,,,,442.75,100,NFM,Public,AMATEUR,,,"offset=+"
W7UMH,-122.159063,48.594693,"Lyman",W7UMH,communications_transponder,,http://www.poi-factory.com/node/2227,,,,Hill,107.2,NFM,Public,AMATEUR,,,"offset=442.4MHz"
WA7ZUS,-122.159063,48.594693,"Lyman",WA7ZUS,communications_transponder,,http://www.poi-factory.com/node/2227,,,,Hill,103.5,NFM,Public,AMATEUR,,,"offset=444.5MHz"
W7AKA,-122.155975,47.53857,"Newcastle",W7AKA,communications_transponder,,http://www.poi-factory.com/node/2227,,,,441.475,100,NFM,Public,AMATEUR,,,"offset=+"
W6RGG,-122.155762,37.724979,"San",W6RGG,communications_transponder,,http://www.poi-factory.com/node/2227,,,,Leandro,107.2,NFM,Public,AMATEUR,,,"offset=444.2MHz"
WB6ECE,-122.150696,37.041691,"Bonny",WB6ECE,communications_transponder,,http://www.poi-factory.com/node/2227,,,,Doon,131.8,NFM,Public,AMATEUR,,,"offset=441.3MHz"
N6BDE,-122.141434,37.442051,"Palo",N6BDE,communications_transponder,,http://www.poi-factory.com/node/2227,,,,Alto,123,NFM,Public,AMATEUR,,,"offset=440.2MHz"
WA6FUL,-122.141434,37.442051,"Palo",WA6FUL,communications_transponder,,http://www.poi-factory.com/node/2227,,,,Alto,114.8,NFM,Public,AMATEUR,,,"offset=441.1MHz"
K6OTR,-122.141434,37.442051,"Palo",K6OTR,communications_transponder,,http://www.poi-factory.com/node/2227,,,,Alto,114.8,NFM,Public,AMATEUR,,,"offset=441.85MHz"
WW6HP,-122.141434,37.442051,"Palo",WW6HP,communications_transponder,,http://www.poi-factory.com/node/2227,,,,Alto,151.4,NFM,Public,AMATEUR,,,"offset=442MHz"
K6FB,-122.141434,37.442051,"Palo",K6FB,communications_transponder,,http://www.poi-factory.com/node/2227,,,,Alto,100,NFM,Public,AMATEUR,,,"offset=442.575MHz"
K6OTR,-122.141434,37.442051,"Palo",K6OTR,communications_transponder,,http://www.poi-factory.com/node/2227,,,,Alto,114.8,NFM,Public,AMATEUR,,,"offset=442.8MHz"
N6YJ,-122.13147,38.019268,"Martinez",N6YJ,communications_transponder,,http://www.poi-factory.com/node/2227,,,,444.45,107.2,NFM,Public,AMATEUR,,,"offset=+"
W7PSE,-122.128,47.241,"White",W7PSE,communications_transponder,,http://www.poi-factory.com/node/2227,,,,River,103.5,NFM,Public,AMATEUR,,,"offset=443.625MHz"
N6OBY,-122.120529,47.673828,"Redmond",N6OBY,communications_transponder,,http://www.poi-factory.com/node/2227,,,,440.675,103.5,NFM,Public,AMATEUR,,,"offset=+"
K7PAR,-122.120529,47.673828,"Redmond",K7PAR,communications_transponder,,http://www.poi-factory.com/node/2227,,,,443.2,103.5,NFM,Public,AMATEUR,,,"offset=+"
KH6N,-122.112701,37.384338,"Los",KH6N,communications_transponder,,http://www.poi-factory.com/node/2227,,,,Altos,100,NFM,Public,AMATEUR,,,"offset=440.875MHz"
KG6GOT,-122.112701,37.384338,"Los",KG6GOT,communications_transponder,,http://www.poi-factory.com/node/2227,,,,Altos,77,NFM,Public,AMATEUR,,,"offset=442.25MHz"
KB6LED,-122.112701,37.384338,"Los",KB6LED,communications_transponder,,http://www.poi-factory.com/node/2227,,,,Altos,162.2,NFM,Public,AMATEUR,,,"offset=444.95MHz"
K7MMI,-122.098,47.54,"Cougar",K7MMI,communications_transponder,,http://www.poi-factory.com/node/2227,,,,Mtn,100,NFM,Public,AMATEUR,,,"offset=442.325MHz"
W6TOZ,-122.098,47.54,"Cougar",W6TOZ,communications_transponder,,http://www.poi-factory.com/node/2227,,,,Mtn,103.5,NFM,Public,AMATEUR,,,"offset=443.775MHz"
W7ERH,-122.097206,47.911419,"Snohomish",W7ERH,communications_transponder,,http://www.poi-factory.com/node/2227,,,,442.975,103.5,NFM,Public,AMATEUR,,,"offset=+"
W6ASH,-122.081451,37.385349,"Mountain",W6ASH,communications_transponder,,http://www.poi-factory.com/node/2227,,,,View,100,NFM,Public,AMATEUR,,,"offset=440.8MHz"
KK6AN,-122.080841,37.668751,"Hayward",KK6AN,communications_transponder,,http://www.poi-factory.com/node/2227,,,,440.475,71.9,NFM,Public,AMATEUR,,,"offset=+"
K6EAG,-122.080841,37.668751,"Hayward",K6EAG,communications_transponder,,http://www.poi-factory.com/node/2227,,,,444.825,127.3,NFM,Public,AMATEUR,,,"offset=+"
N7KGJ,-122.047415,47.504255,"Squak",N7KGJ,communications_transponder,,http://www.poi-factory.com/node/2227,,,,Mtn,103.5,NFM,Public,AMATEUR,,,"offset=444.525MHz"
KA6CHJ,-122.039078,38.249218,"Fairfield",KA6CHJ,communications_transponder,,http://www.poi-factory.com/node/2227,,,,441.15,77,NFM,Public,AMATEUR,,,"offset=+"
KC6UJM,-122.039078,38.249218,"Fairfield",KC6UJM,communications_transponder,,http://www.poi-factory.com/node/2227,,,,442.775,77,NFM,Public,AMATEUR,,,"offset=+"
W6AMT,-122.032303,37.32304,"Cupertino",W6AMT,communications_transponder,,http://www.poi-factory.com/node/2227,,,,440.125,114.8,NFM,Public,AMATEUR,,,"offset=+"
W6TDM,-122.032303,37.32304,"Cupertino",W6TDM,communications_transponder,,http://www.poi-factory.com/node/2227,,,,440.15,100,NFM,Public,AMATEUR,,,"offset=+"
NV7P,-122.031166,47.53101,"Issaquah",NV7P,communications_transponder,,http://www.poi-factory.com/node/2227,,,,440.7,,NFM,Public,AMATEUR,,,"offset=+"
W6CX,-122.029961,37.97839,"Concord",W6CX,communications_transponder,,http://www.poi-factory.com/node/2227,,,,441.325,100,NFM,Public,AMATEUR,,,"offset=+"
WA6ZTY,-122.029961,37.97839,"Concord",WA6ZTY,communications_transponder,,http://www.poi-factory.com/node/2227,,,,442.65,100,NFM,Public,AMATEUR,,,"offset=+"
K6POU,-122.029961,37.97839,"Concord",K6POU,communications_transponder,,http://www.poi-factory.com/node/2227,,,,443.8,100,NFM,Public,AMATEUR,,,"offset=+"
W6WL,-122.02832,36.973038,"Santa",W6WL,communications_transponder,,http://www.poi-factory.com/node/2227,,,,Cruz,100,NFM,Public,AMATEUR,,,"offset=440.45MHz"
AB6VS,-122.02832,36.973038,"Santa",AB6VS,communications_transponder,,http://www.poi-factory.com/node/2227,,,,Cruz,94.8,NFM,Public,AMATEUR,,,"offset=440.55MHz"
W6JWS,-122.02832,36.973038,"Santa",W6JWS,communications_transponder,,http://www.poi-factory.com/node/2227,,,,Cruz,94.8,NFM,Public,AMATEUR,,,"offset=440.85MHz"
K6BJ,-122.02832,36.973038,"Santa",K6BJ,communications_transponder,,http://www.poi-factory.com/node/2227,,,,Cruz,123,NFM,Public,AMATEUR,,,"offset=440.925MHz"
KB6PPQ,-122.02832,36.973038,"Santa",KB6PPQ,communications_transponder,,http://www.poi-factory.com/node/2227,,,,Cruz,123,NFM,Public,AMATEUR,,,"offset=441.9MHz"
WA6FSP,-121.987259,37.54987,"Fremont",WA6FSP,communications_transponder,,http://www.poi-factory.com/node/2227,,,,440,110.9,NFM,Public,AMATEUR,,,"offset=+"
KC6WXO,-121.987259,37.54987,"Fremont",KC6WXO,communications_transponder,,http://www.poi-factory.com/node/2227,,,,441.125,100,NFM,Public,AMATEUR,,,"offset=+"
N6OXR,-121.987259,37.54987,"Fremont",N6OXR,communications_transponder,,http://www.poi-factory.com/node/2227,,,,441.525,123,NFM,Public,AMATEUR,,,"offset=+"
WA6PWW,-121.987259,37.54987,"Fremont",WA6PWW,communications_transponder,,http://www.poi-factory.com/node/2227,,,,442.6,107.2,NFM,Public,AMATEUR,,,"offset=+"
N6MVT,-121.987259,37.54987,"Fremont",N6MVT,communications_transponder,,http://www.poi-factory.com/node/2227,,,,443.075,162.2,NFM,Public,AMATEUR,,,"offset=+"
WV6F,-121.986397,38.356659,"Vacaville",WV6F,communications_transponder,,http://www.poi-factory.com/node/2227,,,,440.025,,NFM,Public,AMATEUR,,,"offset=+"
KB6LCS,-121.986397,38.356659,"Vacaville",KB6LCS,communications_transponder,,http://www.poi-factory.com/node/2227,,,,440.525,136.5,NFM,Public,AMATEUR,,,"offset=+"
WA6BTH,-121.986397,38.356659,"Vacaville",WA6BTH,communications_transponder,,http://www.poi-factory.com/node/2227,,,,440.75,100,NFM,Public,AMATEUR,,,"offset=+"
WA6BZS,-121.986397,38.356659,"Vacaville",WA6BZS,communications_transponder,,http://www.poi-factory.com/node/2227,,,,441.975,94.8,NFM,Public,AMATEUR,,,"offset=+"
W6KCS,-121.986397,38.356659,"Vacaville",W6KCS,communications_transponder,,http://www.poi-factory.com/node/2227,,,,442.025,179.9,NFM,Public,AMATEUR,,,"offset=+"
AB6CQ,-121.986397,38.356659,"Vacaville",AB6CQ,communications_transponder,,http://www.poi-factory.com/node/2227,,,,442.85,146.2,NFM,Public,AMATEUR,,,"offset=+"
KB5JR,-121.986397,38.356659,"Vacaville",KB5JR,communications_transponder,,http://www.poi-factory.com/node/2227,,,,443.3,114.8,NFM,Public,AMATEUR,,,"offset=+"
WB9GVF,-121.986397,38.356659,"Vacaville",WB9GVF,communications_transponder,,http://www.poi-factory.com/node/2227,,,,443.75,127.3,NFM,Public,AMATEUR,,,"offset=+"
K6MVR,-121.986397,38.356659,"Vacaville",K6MVR,communications_transponder,,http://www.poi-factory.com/node/2227,,,,443.95,136.5,NFM,Public,AMATEUR,,,"offset=+"
WA6RTL,-121.986397,38.356659,"Vacaville",WA6RTL,communications_transponder,,http://www.poi-factory.com/node/2227,,,,444.75,107.2,NFM,Public,AMATEUR,,,"offset=+"
W6PUE,-121.986397,38.356659,"Vacaville",W6PUE,communications_transponder,,http://www.poi-factory.com/node/2227,,,,444.85,94.8,NFM,Public,AMATEUR,,,"offset=+"
KB5JR,-121.980904,37.229019,"Los",KB5JR,communications_transponder,,http://www.poi-factory.com/node/2227,,,,Gatos,100,NFM,Public,AMATEUR,,,"offset=440.05MHz"
W6AMS,-121.980904,37.229019,"Los",W6AMS,communications_transponder,,http://www.poi-factory.com/node/2227,,,,Gatos,210.7,NFM,Public,AMATEUR,,,"offset=440.775MHz"
N6UUI,-121.980904,37.229019,"Los",N6UUI,communications_transponder,,http://www.poi-factory.com/node/2227,,,,Gatos,123,NFM,Public,AMATEUR,,,"offset=441.05MHz"
WA6BZS,-121.980904,37.229019,"Los",WA6BZS,communications_transponder,,http://www.poi-factory.com/node/2227,,,,Gatos,100,NFM,Public,AMATEUR,,,"offset=441.625MHz"
K6UB,-121.980904,37.229019,"Los",K6UB,communications_transponder,,http://www.poi-factory.com/node/2227,,,,Gatos,127.3,NFM,Public,AMATEUR,,,"offset=441.7MHz"
WB9GVF,-121.980904,37.229019,"Los",WB9GVF,communications_transponder,,http://www.poi-factory.com/node/2227,,,,Gatos,100,NFM,Public,AMATEUR,,,"offset=443.75MHz"
KB6LCS,-121.980904,37.229019,"Los",KB6LCS,communications_transponder,,http://www.poi-factory.com/node/2227,,,,Gatos,151.4,NFM,Public,AMATEUR,,,"offset=444.925MHz"
N6TJQ,-121.97,47.73,"Duvall",N6TJQ,communications_transponder,,http://www.poi-factory.com/node/2227,,,,441.85,203.5,NFM,Public,AMATEUR,,,"offset=+"
K7MJ,-121.96933,47.855,"Monroe",K7MJ,communications_transponder,,http://www.poi-factory.com/node/2227,,,,443.225,103.5,NFM,Public,AMATEUR,,,"offset=+"
AB7F,-121.955063,46.535831,"Randle",AB7F,communications_transponder,,http://www.poi-factory.com/node/2227,,,,444.875,100,NFM,Public,AMATEUR,,,"offset=+"
N6OBY,-121.95,47.49,"Tiger",N6OBY,communications_transponder,,http://www.poi-factory.com/node/2227,,,,Mtn,103.5,NFM,Public,AMATEUR,,,"offset=none"
KA7PMC,-121.95,47.49,"Tiger",KA7PMC,communications_transponder,,http://www.poi-factory.com/node/2227,,,,Mtn,103.5,NFM,Public,AMATEUR,,,"offset=none"
WA7HTJ,-121.95,47.49,"Tiger",WA7HTJ,communications_transponder,,http://www.poi-factory.com/node/2227,,,,Mtn,131.8,NFM,Public,AMATEUR,,,"offset=none"
WB0CZA,-121.95,47.49,"Tiger",WB0CZA,communications_transponder,,http://www.poi-factory.com/node/2227,,,,Mtn,123,NFM,Public,AMATEUR,,,"offset=none"
K7NWS,-121.95,47.49,"Tiger",K7NWS,communications_transponder,,http://www.poi-factory.com/node/2227,,,,Mtn,110.9,NFM,Public,AMATEUR,,,"offset=none"
K7NWS,-121.95,47.49,"Tiger",K7NWS,communications_transponder,,http://www.poi-factory.com/node/2227,,,,Mtn,,NFM,Public,AMATEUR,,,"offset=none"
WB9GVF,-121.948647,37.287109,"Campbell",WB9GVF,communications_transponder,,http://www.poi-factory.com/node/2227,,,,441.025,156.7,NFM,Public,AMATEUR,,,"offset=+"
W7UFI,-121.94008,48.20837,"JimCreek",W7UFI,communications_transponder,,http://www.poi-factory.com/node/2227,,,,443.875,103.5,NFM,Public,AMATEUR,,,"offset=+"
WA7ZWG,-121.932,48.822,"Lookout",WA7ZWG,communications_transponder,,http://www.poi-factory.com/node/2227,,,,Mtn,103.5,NFM,Public,AMATEUR,,,"offset=443.75MHz"
W7PFR,-121.917,46.8,"Pack",W7PFR,communications_transponder,,http://www.poi-factory.com/node/2227,,,,Forest,100,NFM,Public,AMATEUR,,,"offset=443.975MHz"
WB6ECE,-121.905617,37.426357,"Milpitas",WB6ECE,communications_transponder,,http://www.poi-factory.com/node/2227,,,,441.3,110.9,NFM,Public,AMATEUR,,,"offset=+"
W7NTF,-121.902,47.187,"Baldi",W7NTF,communications_transponder,,http://www.poi-factory.com/node/2227,,,,Mtn,103.5,NFM,Public,AMATEUR,,,"offset=442.625MHz"
WA6HHQ,-121.898422,36.97681,"Aptos",WA6HHQ,communications_transponder,,http://www.poi-factory.com/node/2227,,,,441.925,100,NFM,Public,AMATEUR,,,"offset=+"
WB6ECE,-121.893646,36.598969,"Monterey",WB6ECE,communications_transponder,,http://www.poi-factory.com/node/2227,,,,441.3,136.5,NFM,Public,AMATEUR,,,"offset=+"
N6SPD,-121.893646,36.598969,"Monterey",N6SPD,communications_transponder,,http://www.poi-factory.com/node/2227,,,,441.65,94.8,NFM,Public,AMATEUR,,,"offset=+"
K6LY,-121.893646,36.598969,"Monterey",K6LY,communications_transponder,,http://www.poi-factory.com/node/2227,,,,444.7,123,NFM,Public,AMATEUR,,,"offset=+"
W5FRR,-121.892181,37.340382,"San",W5FRR,communications_transponder,,http://www.poi-factory.com/node/2227,,,,Jose,100,NFM,Public,AMATEUR,,,"offset=440.1MHz"
K6LLC,-121.892181,37.340382,"San",K6LLC,communications_transponder,,http://www.poi-factory.com/node/2227,,,,Jose,123,NFM,Public,AMATEUR,,,"offset=440.225MHz"
N6VYQ,-121.892181,37.340382,"San",N6VYQ,communications_transponder,,http://www.poi-factory.com/node/2227,,,,Jose,107.2,NFM,Public,AMATEUR,,,"offset=440.6MHz"
KC6BJO,-121.892181,37.340382,"San",KC6BJO,communications_transponder,,http://www.poi-factory.com/node/2227,,,,Jose,100,NFM,Public,AMATEUR,,,"offset=441.15MHz"
KF6FWO,-121.892181,37.340382,"San",KF6FWO,communications_transponder,,http://www.poi-factory.com/node/2227,,,,Jose,103.5,NFM,Public,AMATEUR,,,"offset=441.175MHz"
AB6AC,-121.892181,37.340382,"San",AB6AC,communications_transponder,,http://www.poi-factory.com/node/2227,,,,Jose,127.3,NFM,Public,AMATEUR,,,"offset=441.225MHz"
WB6ECE,-121.892181,37.340382,"San",WB6ECE,communications_transponder,,http://www.poi-factory.com/node/2227,,,,Jose,146.2,NFM,Public,AMATEUR,,,"offset=441.3MHz"
W6PIY,-121.892181,37.340382,"San",W6PIY,communications_transponder,,http://www.poi-factory.com/node/2227,,,,Jose,88.5,NFM,Public,AMATEUR,,,"offset=441.35MHz"
W1NSA,-121.892181,37.340382,"San",W1NSA,communications_transponder,,http://www.poi-factory.com/node/2227,,,,Jose,156.7,NFM,Public,AMATEUR,,,"offset=441.775MHz"
N6MPX,-121.892181,37.340382,"San",N6MPX,communications_transponder,,http://www.poi-factory.com/node/2227,,,,Jose,100,NFM,Public,AMATEUR,,,"offset=441.95MHz"
K6INC,-121.892181,37.340382,"San",K6INC,communications_transponder,,http://www.poi-factory.com/node/2227,,,,Jose,114.8,NFM,Public,AMATEUR,,,"offset=442.3MHz"
W6UU,-121.892181,37.340382,"San",W6UU,communications_transponder,,http://www.poi-factory.com/node/2227,,,,Jose,107.2,NFM,Public,AMATEUR,,,"offset=442.425MHz"
WB6ZVW,-121.892181,37.340382,"San",WB6ZVW,communications_transponder,,http://www.poi-factory.com/node/2227,,,,Jose,100,NFM,Public,AMATEUR,,,"offset=442.5MHz"
N6MNV,-121.892181,37.340382,"San",N6MNV,communications_transponder,,http://www.poi-factory.com/node/2227,,,,Jose,100,NFM,Public,AMATEUR,,,"offset=442.7MHz"
KG6KCL,-121.892181,37.340382,"San",KG6KCL,communications_transponder,,http://www.poi-factory.com/node/2227,,,,Jose,131.8,NFM,Public,AMATEUR,,,"offset=442.775MHz"
KB6FEC,-121.892181,37.340382,"San",KB6FEC,communications_transponder,,http://www.poi-factory.com/node/2227,,,,Jose,162.2,NFM,Public,AMATEUR,,,"offset=442.875MHz"
K6YZS,-121.892181,37.340382,"San",K6YZS,communications_transponder,,http://www.poi-factory.com/node/2227,,,,Jose,85.4,NFM,Public,AMATEUR,,,"offset=442.95MHz"
W6AMT,-121.892181,37.340382,"San",W6AMT,communications_transponder,,http://www.poi-factory.com/node/2227,,,,Jose,107.2,NFM,Public,AMATEUR,,,"offset=443.275MHz"
KB5JR,-121.892181,37.340382,"San",KB5JR,communications_transponder,,http://www.poi-factory.com/node/2227,,,,Jose,136.5,NFM,Public,AMATEUR,,,"offset=443.3MHz"
N6QOP,-121.892181,37.340382,"San",N6QOP,communications_transponder,,http://www.poi-factory.com/node/2227,,,,Jose,123,NFM,Public,AMATEUR,,,"offset=443.475MHz"
WA6GML,-121.892181,37.340382,"San",WA6GML,communications_transponder,,http://www.poi-factory.com/node/2227,,,,Jose,100,NFM,Public,AMATEUR,,,"offset=443.475MHz"
WA6GFY,-121.892181,37.340382,"San",WA6GFY,communications_transponder,,http://www.poi-factory.com/node/2227,,,,Jose,100,NFM,Public,AMATEUR,,,"offset=443.775MHz"
WB6RNH,-121.892181,37.340382,"San",WB6RNH,communications_transponder,,http://www.poi-factory.com/node/2227,,,,Jose,162.2,NFM,Public,AMATEUR,,,"offset=444.3MHz"
WB6RNH,-121.892181,37.340382,"San",WB6RNH,communications_transponder,,http://www.poi-factory.com/node/2227,,,,Jose,100,NFM,Public,AMATEUR,,,"offset=444.3MHz"
KD6AOG,-121.892181,37.340382,"San",KD6AOG,communications_transponder,,http://www.poi-factory.com/node/2227,,,,Jose,127.3,NFM,Public,AMATEUR,,,"offset=444.325MHz"
WB6JSO,-121.892181,37.340382,"San",WB6JSO,communications_transponder,,http://www.poi-factory.com/node/2227,,,,Jose,100,NFM,Public,AMATEUR,,,"offset=444.45MHz"
WB6OQS,-121.892181,37.340382,"San",WB6OQS,communications_transponder,,http://www.poi-factory.com/node/2227,,,,Jose,141.3,NFM,Public,AMATEUR,,,"offset=444.6MHz"
N6NAC,-121.892181,37.340382,"San",N6NAC,communications_transponder,,http://www.poi-factory.com/node/2227,,,,Jose,110.9,NFM,Public,AMATEUR,,,"offset=444.625MHz"
N9JIM,-121.892181,37.340382,"San",N9JIM,communications_transponder,,http://www.poi-factory.com/node/2227,,,,Jose,100,NFM,Public,AMATEUR,,,"offset=444.75MHz"
KU6V,-121.892181,37.340382,"San",KU6V,communications_transponder,,http://www.poi-factory.com/node/2227,,,,Jose,110.9,NFM,Public,AMATEUR,,,"offset=444.9MHz"
WA6IVQ,-121.892181,37.340382,"San",WA6IVQ,communications_transponder,,http://www.poi-factory.com/node/2227,,,,Leandro,,NFM,Public,AMATEUR,,,"offset=442.35MHz"
K6BIV,-121.882759,38.028179,"Pittsburg",K6BIV,communications_transponder,,http://www.poi-factory.com/node/2227,,,,440.125,127.3,NFM,Public,AMATEUR,,,"offset=+"
K6KCP,-121.879601,38.79538,"Zamora",K6KCP,communications_transponder,,http://www.poi-factory.com/node/2227,,,,441.85,156.7,NFM,Public,AMATEUR,,,"offset=+"
N7BUW,-121.877,47.102,"Three",N7BUW,communications_transponder,,http://www.poi-factory.com/node/2227,,,,Sisters,136.5,NFM,Public,AMATEUR,,,"offset=444.675MHz"
AD6KV,-121.873917,37.660831,"Pleasanton",AD6KV,communications_transponder,,http://www.poi-factory.com/node/2227,,,,442.625,94.8,NFM,Public,AMATEUR,,,"offset=+"
W6RHC,-121.837051,39.728931,"Chico",W6RHC,communications_transponder,,http://www.poi-factory.com/node/2227,,,,440.65,110.9,NFM,Public,AMATEUR,,,"offset=+"
WB6RHC,-121.837051,39.728931,"Chico",WB6RHC,communications_transponder,,http://www.poi-factory.com/node/2227,,,,441.4,110.9,NFM,Public,AMATEUR,,,"offset=+"
W6ECE,-121.837051,39.728931,"Chico",W6ECE,communications_transponder,,http://www.poi-factory.com/node/2227,,,,442.375,100,NFM,Public,AMATEUR,,,"offset=+"
KE6ADC,-121.837051,39.728931,"Chico",KE6ADC,communications_transponder,,http://www.poi-factory.com/node/2227,,,,444.4,136.5,NFM,Public,AMATEUR,,,"offset=+"
W7SKY,-121.815361,47.86311,"Sultan",W7SKY,communications_transponder,,http://www.poi-factory.com/node/2227,,,,444.125,103.5,NFM,Public,AMATEUR,,,"offset=+"
KF6DQJ,-121.805107,38.004871,"Antioch",KF6DQJ,communications_transponder,,http://www.poi-factory.com/node/2227,,,,440.65,127.3,NFM,Public,AMATEUR,,,"offset=+"
W7PSE,-121.803771,47.451234,"Rattlesnake",W7PSE,communications_transponder,,http://www.poi-factory.com/node/2227,,,,Mtn,103.5,NFM,Public,AMATEUR,,,"offset=441.775MHz"
N7UMO,-121.803771,47.451234,"Rattlesnake",N7UMO,communications_transponder,,http://www.poi-factory.com/node/2227,,,,Mtn,103.5,NFM,Public,AMATEUR,,,"offset=443.125MHz"
KC7IDX,-121.803771,47.451234,"Rattlesnake",KC7IDX,communications_transponder,,http://www.poi-factory.com/node/2227,,,,Mtn,,NFM,Public,AMATEUR,,,"offset=444.55MHz"
WC7AAO,-121.795835,47.203941,"Grass",WC7AAO,communications_transponder,,http://www.poi-factory.com/node/2227,,,,Mtn,136.5,NFM,Public,AMATEUR,,,"offset=444.625MHz"
W7SYS,-121.785049,47.495647,"North",W7SYS,communications_transponder,,http://www.poi-factory.com/node/2227,,,,Bend,103.5,NFM,Public,AMATEUR,,,"offset=442.15MHz"
K7DDI,-121.780952,42.224911,"Klamath",K7DDI,communications_transponder,,http://www.poi-factory.com/node/2227,,,,Falls,,NFM,Public,AMATEUR,,,"offset=443.9MHz"
K7DXV,-121.780952,42.224911,"Klamath",K7DXV,communications_transponder,,http://www.poi-factory.com/node/2227,,,,Falls,,NFM,Public,AMATEUR,,,"offset=444MHz"
KC6UDS,-121.770653,38.678669,"Woodland",KC6UDS,communications_transponder,,http://www.poi-factory.com/node/2227,,,,440.475,192.8,NFM,Public,AMATEUR,,,"offset=+"
W6CO,-121.770653,38.678669,"Woodland",W6CO,communications_transponder,,http://www.poi-factory.com/node/2227,,,,441.8,131.8,NFM,Public,AMATEUR,,,"offset=+"
KE6YUV,-121.770653,38.678669,"Woodland",KE6YUV,communications_transponder,,http://www.poi-factory.com/node/2227,,,,444.1,71.9,NFM,Public,AMATEUR,,,"offset=+"
K7RPT,-121.7568,45.3041,"Timberline",K7RPT,communications_transponder,,http://www.poi-factory.com/node/2227,,,,444.225,,NFM,Public,AMATEUR,,,"offset=+"
K6RMW,-121.755249,36.910141,"Watsonville",K6RMW,communications_transponder,,http://www.poi-factory.com/node/2227,,,,443.05,94.8,NFM,Public,AMATEUR,,,"offset=+"
KB6MET,-121.755249,36.910141,"Watsonville",KB6MET,communications_transponder,,http://www.poi-factory.com/node/2227,,,,443.35,123,NFM,Public,AMATEUR,,,"offset=+"
WD6AXM,-121.751442,39.159859,"Sutter",WD6AXM,communications_transponder,,http://www.poi-factory.com/node/2227,,,,443.85,127.3,NFM,Public,AMATEUR,,,"offset=+"
KC6UDC,-121.668945,36.77599,"Prunedale",KC6UDC,communications_transponder,,http://www.poi-factory.com/node/2227,,,,441.125,123,NFM,Public,AMATEUR,,,"offset=+"
W6TAR,-121.668945,36.77599,"Prunedale",W6TAR,communications_transponder,,http://www.poi-factory.com/node/2227,,,,443.9,123,NFM,Public,AMATEUR,,,"offset=+"
KI6WG,-121.658394,40.882729,"Burney",KI6WG,communications_transponder,,http://www.poi-factory.com/node/2227,,,,440.25,103.5,NFM,Public,AMATEUR,,,"offset=+"
W6QWN,-121.658394,40.882729,"Burney",W6QWN,communications_transponder,,http://www.poi-factory.com/node/2227,,,,444.6,110.9,NFM,Public,AMATEUR,,,"offset=+"
K6JE,-121.654572,36.677689,"Salinas",K6JE,communications_transponder,,http://www.poi-factory.com/node/2227,,,,441.45,123,NFM,Public,AMATEUR,,,"offset=+"
N6MVT,-121.654572,36.677689,"Salinas",N6MVT,communications_transponder,,http://www.poi-factory.com/node/2227,,,,442.075,114.8,NFM,Public,AMATEUR,,,"offset=+"
W6MOW,-121.654572,36.677689,"Salinas",W6MOW,communications_transponder,,http://www.poi-factory.com/node/2227,,,,443.6,110.9,NFM,Public,AMATEUR,,,"offset=+"
N6TZG,-121.593292,40.348728,"Mineral",N6TZG,communications_transponder,,http://www.poi-factory.com/node/2227,,,,440.975,100,NFM,Public,AMATEUR,,,"offset=+"
W6SCR,-121.555161,39.51334,"Oroville",W6SCR,communications_transponder,,http://www.poi-factory.com/node/2227,,,,440.9,110.9,NFM,Public,AMATEUR,,,"offset=+"
K7PFJ,-121.54747,44.29044,"Sisters",K7PFJ,communications_transponder,,http://www.poi-factory.com/node/2227,,,,441.625,100,NFM,Public,AMATEUR,,,"offset=+"
N6IKC,-121.493042,38.58136,"Sacramento",N6IKC,communications_transponder,,http://www.poi-factory.com/node/2227,,,,441.025,123,NFM,Public,AMATEUR,,,"offset=+"
KC6BWO,-121.493042,38.58136,"Sacramento",KC6BWO,communications_transponder,,http://www.poi-factory.com/node/2227,,,,441.45,100,NFM,Public,AMATEUR,,,"offset=+"
NA6DF,-121.493042,38.58136,"Sacramento",NA6DF,communications_transponder,,http://www.poi-factory.com/node/2227,,,,441.85,77,NFM,Public,AMATEUR,,,"offset=+"
W6RCA,-121.493042,38.58136,"Sacramento",W6RCA,communications_transponder,,http://www.poi-factory.com/node/2227,,,,441.95,151.4,NFM,Public,AMATEUR,,,"offset=+"
KD6PTE,-121.493042,38.58136,"Sacramento",KD6PTE,communications_transponder,,http://www.poi-factory.com/node/2227,,,,442,179.9,NFM,Public,AMATEUR,,,"offset=+"
WR6AAA,-121.493042,38.58136,"Sacramento",WR6AAA,communications_transponder,,http://www.poi-factory.com/node/2227,,,,442.325,114.8,NFM,Public,AMATEUR,,,"offset=+"
WA6ZZK,-121.493042,38.58136,"Sacramento",WA6ZZK,communications_transponder,,http://www.poi-factory.com/node/2227,,,,442.5,151.4,NFM,Public,AMATEUR,,,"offset=+"
N6NA,-121.493042,38.58136,"Sacramento",N6NA,communications_transponder,,http://www.poi-factory.com/node/2227,,,,442.6,100,NFM,Public,AMATEUR,,,"offset=+"
W6AK,-121.493042,38.58136,"Sacramento",W6AK,communications_transponder,,http://www.poi-factory.com/node/2227,,,,442.8,100,NFM,Public,AMATEUR,,,"offset=+"
K6NP,-121.493042,38.58136,"Sacramento",K6NP,communications_transponder,,http://www.poi-factory.com/node/2227,,,,442.9,136.5,NFM,Public,AMATEUR,,,"offset=+"
N6SEX,-121.493042,38.58136,"Sacramento",N6SEX,communications_transponder,,http://www.poi-factory.com/node/2227,,,,443.125,100,NFM,Public,AMATEUR,,,"offset=+"
W6YDD,-121.493042,38.58136,"Sacramento",W6YDD,communications_transponder,,http://www.poi-factory.com/node/2227,,,,443.9,136.5,NFM,Public,AMATEUR,,,"offset=+"
K6RAK,-121.493042,38.58136,"Sacramento",K6RAK,communications_transponder,,http://www.poi-factory.com/node/2227,,,,444.625,123,NFM,Public,AMATEUR,,,"offset=+"
KD6FVA,-121.423798,37.738609,"Tracy",KD6FVA,communications_transponder,,http://www.poi-factory.com/node/2227,,,,441.65,156.7,NFM,Public,AMATEUR,,,"offset=+"
K7PFJ,-121.314217,44.058861,"Bend",K7PFJ,communications_transponder,,http://www.poi-factory.com/node/2227,,,,442.125,123,NFM,Public,AMATEUR,,,"offset=+"
WA7TPD,-121.314217,44.058861,"Bend",WA7TPD,communications_transponder,,http://www.poi-factory.com/node/2227,,,,444.25,,NFM,Public,AMATEUR,,,"offset=+"
KE6DXF,-121.290108,37.957829,"Stockton",KE6DXF,communications_transponder,,http://www.poi-factory.com/node/2227,,,,440.075,131.8,NFM,Public,AMATEUR,,,"offset=+"
K6GTO,-121.290108,37.957829,"Stockton",K6GTO,communications_transponder,,http://www.poi-factory.com/node/2227,,,,442.275,103.5,NFM,Public,AMATEUR,,,"offset=+"
KF6BPA,-121.290108,37.957829,"Stockton",KF6BPA,communications_transponder,,http://www.poi-factory.com/node/2227,,,,443.15,107.2,NFM,Public,AMATEUR,,,"offset=+"
WA6TCG,-121.290108,37.957829,"Stockton",WA6TCG,communications_transponder,,http://www.poi-factory.com/node/2227,,,,444.325,94.8,NFM,Public,AMATEUR,,,"offset=+"
KB6WAS,-121.281197,38.707569,"Citrus",KB6WAS,communications_transponder,,http://www.poi-factory.com/node/2227,,,,Heights,136.5,NFM,Public,AMATEUR,,,"offset=443.675MHz"
KF6CCP,-121.229218,40.306271,"Chester",KF6CCP,communications_transponder,,http://www.poi-factory.com/node/2227,,,,444.5,103.5,NFM,Public,AMATEUR,,,"offset=+"
K6MSR,-121.20047,37.54837,"Westley",K6MSR,communications_transponder,,http://www.poi-factory.com/node/2227,,,,443.625,107.2,NFM,Public,AMATEUR,,,"offset=+"
WA6RQX,-121.20047,37.54837,"Westley",WA6RQX,communications_transponder,,http://www.poi-factory.com/node/2227,,,,444.175,141.3,NFM,Public,AMATEUR,,,"offset=+"
KF6VXF,-121.174217,38.677837,"Folsom",KF6VXF,communications_transponder,,http://www.poi-factory.com/node/2227,,,,442.35,136.5,NFM,Public,AMATEUR,,,"offset=+"
K6MFG,-121.174217,38.677837,"Folsom",K6MFG,communications_transponder,,http://www.poi-factory.com/node/2227,,,,442.525,77,NFM,Public,AMATEUR,,,"offset=+"
W4EG,-121.132217,38.87413,"Newbury",W4EG,communications_transponder,,http://www.poi-factory.com/node/2227,,,,Park,123,NFM,Public,AMATEUR,,,"offset=445.9MHz"
WB6WLV,-121.106697,40.27874,"Laguna",WB6WLV,communications_transponder,,http://www.poi-factory.com/node/2227,,,,Pk,107.2,NFM,Public,AMATEUR,,,"offset=449.2MHz"
K6ARR,-121.075951,38.896889,"Auburn",K6ARR,communications_transponder,,http://www.poi-factory.com/node/2227,,,,440.575,94.8,NFM,Public,AMATEUR,,,"offset=+"
KJ6KO,-121.075951,38.896889,"Auburn",KJ6KO,communications_transponder,,http://www.poi-factory.com/node/2227,,,,440.7,88.5,NFM,Public,AMATEUR,,,"offset=+"
N6HZQ,-121.075951,38.896889,"Auburn",N6HZQ,communications_transponder,,http://www.poi-factory.com/node/2227,,,,443.775,123,NFM,Public,AMATEUR,,,"offset=+"
N6NMZ,-121.075951,38.896889,"Auburn",N6NMZ,communications_transponder,,http://www.poi-factory.com/node/2227,,,,444.6,192.8,NFM,Public,AMATEUR,,,"offset=+"
W6HA,-121.072289,38.691139,"El",W6HA,communications_transponder,,http://www.poi-factory.com/node/2227,,,,Segundo,127.3,NFM,Public,AMATEUR,,,"offset=445.62MHz"
KO6CW,-121.060402,39.219501,"Grass",KO6CW,communications_transponder,,http://www.poi-factory.com/node/2227,,,,Valley,151.4,NFM,Public,AMATEUR,,,"offset=440.1MHz"
KB6LCS,-121.060402,39.219501,"Grass",KB6LCS,communications_transponder,,http://www.poi-factory.com/node/2227,,,,Valley,192.8,NFM,Public,AMATEUR,,,"offset=440.525MHz"
AB6LI,-121.060402,39.219501,"Grass",AB6LI,communications_transponder,,http://www.poi-factory.com/node/2227,,,,Valley,151.4,NFM,Public,AMATEUR,,,"offset=442.15MHz"
N6VYQ,-121.060402,39.219501,"Grass",N6VYQ,communications_transponder,,http://www.poi-factory.com/node/2227,,,,Valley,107.2,NFM,Public,AMATEUR,,,"offset=442.95MHz"
K6NP,-121.060402,39.219501,"Grass",K6NP,communications_transponder,,http://www.poi-factory.com/node/2227,,,,Valley,136.5,NFM,Public,AMATEUR,,,"offset=444.05MHz"
N6KOD,-121.060402,39.219501,"Grass",N6KOD,communications_transponder,,http://www.poi-factory.com/node/2227,,,,Valley,151.4,NFM,Public,AMATEUR,,,"offset=444.675MHz"
K6RTL,-121.060402,39.219501,"Grass",K6RTL,communications_transponder,,http://www.poi-factory.com/node/2227,,,,Valley,167.9,NFM,Public,AMATEUR,,,"offset=444.75MHz"
N6TZG,-121.004349,40.306091,"Westwood",N6TZG,communications_transponder,,http://www.poi-factory.com/node/2227,,,,441.025,123,NFM,Public,AMATEUR,,,"offset=+"
WD6EJF,-120.994751,37.639099,"Modesto",WD6EJF,communications_transponder,,http://www.poi-factory.com/node/2227,,,,440.225,136.5,NFM,Public,AMATEUR,,,"offset=+"
N6LYE,-120.994751,37.639099,"Modesto",N6LYE,communications_transponder,,http://www.poi-factory.com/node/2227,,,,440.8,107.2,NFM,Public,AMATEUR,,,"offset=+"
K6RDJ,-120.994751,37.639099,"Modesto",K6RDJ,communications_transponder,,http://www.poi-factory.com/node/2227,,,,441.275,107.2,NFM,Public,AMATEUR,,,"offset=+"
N6QOP,-120.994751,37.639099,"Modesto",N6QOP,communications_transponder,,http://www.poi-factory.com/node/2227,,,,442.075,123,NFM,Public,AMATEUR,,,"offset=+"
K6JSI,-120.994751,37.639099,"Modesto",K6JSI,communications_transponder,,http://www.poi-factory.com/node/2227,,,,443.525,107.2,NFM,Public,AMATEUR,,,"offset=+"
N6OGN,-120.994751,37.639099,"Modesto",N6OGN,communications_transponder,,http://www.poi-factory.com/node/2227,,,,444.225,107.2,NFM,Public,AMATEUR,,,"offset=+"
WB6OHV,-120.95311,39.09906,"Colfax",WB6OHV,communications_transponder,,http://www.poi-factory.com/node/2227,,,,440.95,192.8,NFM,Public,AMATEUR,,,"offset=+"
KF6CCP,-120.946136,39.936771,"Quincy",KF6CCP,communications_transponder,,http://www.poi-factory.com/node/2227,,,,442.775,103.5,NFM,Public,AMATEUR,,,"offset=+"
KD6AZF,-120.925278,38.66608,"Shingle",KD6AZF,communications_transponder,,http://www.poi-factory.com/node/2227,,,,Springs,156.7,NFM,Public,AMATEUR,,,"offset=442.05MHz"
K6GNY,-120.925278,38.66608,"Shingle",K6GNY,communications_transponder,,http://www.poi-factory.com/node/2227,,,,Springs,162.2,NFM,Public,AMATEUR,,,"offset=443.15MHz"
WR7KCR,-120.86,47.14,"Sky",WR7KCR,communications_transponder,,http://www.poi-factory.com/node/2227,,,,Meadows,,NFM,Public,AMATEUR,,,"offset=442.2MHz"
KC7BDC,-120.86,47.14,"Sky",KC7BDC,communications_transponder,,http://www.poi-factory.com/node/2227,,,,Meadows,,NFM,Public,AMATEUR,,,"offset=443.6MHz"
K6TJS,-120.849319,37.058868,"Los",K6TJS,communications_transponder,,http://www.poi-factory.com/node/2227,,,,Banos,123,NFM,Public,AMATEUR,,,"offset=444MHz"
W6EBW,-120.831253,38.188641,"Valley",W6EBW,communications_transponder,,http://www.poi-factory.com/node/2227,,,,Springs,118.8,NFM,Public,AMATEUR,,,"offset=441.075MHz"
KA6ZRJ,-120.816299,39.020199,"Foresthill",KA6ZRJ,communications_transponder,,http://www.poi-factory.com/node/2227,,,,442.7,114.8,NFM,Public,AMATEUR,,,"offset=+"
KA6EBR,-120.816299,39.020199,"Foresthill",KA6EBR,communications_transponder,,http://www.poi-factory.com/node/2227,,,,442.875,131.8,NFM,Public,AMATEUR,,,"offset=+"
WA6BTH,-120.796608,38.72979,"Placerville",WA6BTH,communications_transponder,,http://www.poi-factory.com/node/2227,,,,440.7,123,NFM,Public,AMATEUR,,,"offset=+"
N6UUI,-120.796608,38.72979,"Placerville",N6UUI,communications_transponder,,http://www.poi-factory.com/node/2227,,,,441.05,127.3,NFM,Public,AMATEUR,,,"offset=+"
WA6BTH,-120.796608,38.72979,"Placerville",WA6BTH,communications_transponder,,http://www.poi-factory.com/node/2227,,,,442.475,110.9,NFM,Public,AMATEUR,,,"offset=+"
N6QDY,-120.796608,38.72979,"Placerville",N6QDY,communications_transponder,,http://www.poi-factory.com/node/2227,,,,443.925,179.9,NFM,Public,AMATEUR,,,"offset=+"
WB6ZRO,-120.794098,38.368252,"Martell",WB6ZRO,communications_transponder,,http://www.poi-factory.com/node/2227,,,,441.55,,NFM,Public,AMATEUR,,,"offset=+"
KD6AZF,-120.77327,38.349072,"Jackson",KD6AZF,communications_transponder,,http://www.poi-factory.com/node/2227,,,,441.125,156.7,NFM,Public,AMATEUR,,,"offset=+"
KD6AZF,-120.77327,38.349072,"Jackson",KD6AZF,communications_transponder,,http://www.poi-factory.com/node/2227,,,,443.35,156.7,NFM,Public,AMATEUR,,,"offset=+"
WR6ASF,-120.737885,39.44125,"Graniteville",WR6ASF,communications_transponder,,http://www.poi-factory.com/node/2227,,,,444.925,88.5,NFM,Public,AMATEUR,,,"offset=+"
KF6BXS,-120.694946,35.752659,"Mt",KF6BXS,communications_transponder,,http://www.poi-factory.com/node/2227,,,,San,123,NFM,Public,AMATEUR,,,"offset=none"
N6YBH,-120.673576,38.737659,"Camino",N6YBH,communications_transponder,,http://www.poi-factory.com/node/2227,,,,441.225,82.5,NFM,Public,AMATEUR,,,"offset=+"
K6ARC,-120.658234,38.412552,"Pine",K6ARC,communications_transponder,,http://www.poi-factory.com/node/2227,,,,Grove,100,NFM,Public,AMATEUR,,,"offset=441.525MHz"
W6YKM,-120.658234,38.412552,"Pine",W6YKM,communications_transponder,,http://www.poi-factory.com/node/2227,,,,Grove,114.8,NFM,Public,AMATEUR,,,"offset=442.25MHz"
WB6JWB,-120.65789,35.28286,"San",WB6JWB,communications_transponder,,http://www.poi-factory.com/node/2227,,,,Luis,94.8,NFM,Public,AMATEUR,,,"offset=none"
W6BHZ,-120.65789,35.28286,"San",W6BHZ,communications_transponder,,http://www.poi-factory.com/node/2227,,,,Luis,127.3,NFM,Public,AMATEUR,,,"offset=none"
WB6FMC,-120.65789,35.28286,"San",WB6FMC,communications_transponder,,http://www.poi-factory.com/node/2227,,,,Luis,127.3,NFM,Public,AMATEUR,,,"offset=none"
KG6AKQ,-120.65789,35.28286,"San",KG6AKQ,communications_transponder,,http://www.poi-factory.com/node/2227,,,,Luis,127.3,NFM,Public,AMATEUR,,,"offset=none"
KD6EKH,-120.65789,35.28286,"San",KD6EKH,communications_transponder,,http://www.poi-factory.com/node/2227,,,,Luis,127.3,NFM,Public,AMATEUR,,,"offset=none"
WB6GVO,-120.65789,35.28286,"San",WB6GVO,communications_transponder,,http://www.poi-factory.com/node/2227,,,,Luis,127.3,NFM,Public,AMATEUR,,,"offset=none"
K6ME,-120.651688,40.416161,"Susanville",K6ME,communications_transponder,,http://www.poi-factory.com/node/2227,,,,444.975,91.5,NFM,Public,AMATEUR,,,"offset=+"
KG6TXA,-120.641182,37.980721,"Copperopolis",KG6TXA,communications_transponder,,http://www.poi-factory.com/node/2227,,,,440,141.3,NFM,Public,AMATEUR,,,"offset=+"
W6KAP,-120.629807,38.443359,"Volcano",W6KAP,communications_transponder,,http://www.poi-factory.com/node/2227,,,,440.45,127.3,NFM,Public,AMATEUR,,,"offset=+"
WB6HEV,-120.600471,35.118759,"Fair",WB6HEV,communications_transponder,,http://www.poi-factory.com/node/2227,,,,Oaks,162.2,NFM,Public,AMATEUR,,,"offset=440.725MHz"
WB6KQV,-120.586113,38.76157,"Pollock",WB6KQV,communications_transponder,,http://www.poi-factory.com/node/2227,,,,Pines,123,NFM,Public,AMATEUR,,,"offset=442.475MHz"
WB6HMD,-120.542488,41.487099,"Alturas",WB6HMD,communications_transponder,,http://www.poi-factory.com/node/2227,,,,442.35,85.4,NFM,Public,AMATEUR,,,"offset=+"
WB6LZV,-120.527977,38.399849,"West",WB6LZV,communications_transponder,,http://www.poi-factory.com/node/2227,,,,Point,123,NFM,Public,AMATEUR,,,"offset=441.375MHz"
N6LYE,-120.481216,37.301708,"Merced",N6LYE,communications_transponder,,http://www.poi-factory.com/node/2227,,,,440.8,114.8,NFM,Public,AMATEUR,,,"offset=+"
N6VYQ,-120.481216,37.301708,"Merced",N6VYQ,communications_transponder,,http://www.poi-factory.com/node/2227,,,,442.675,107.2,NFM,Public,AMATEUR,,,"offset=+"
NH7M,-120.467644,39.810032,"Portola",NH7M,communications_transponder,,http://www.poi-factory.com/node/2227,,,,444.1,100,NFM,Public,AMATEUR,,,"offset=+"
WA7HNH,-120.4387,47.1873,"Naneum",WA7HNH,communications_transponder,,http://www.poi-factory.com/node/2227,,,,Ridge,173.8,NFM,Public,AMATEUR,,,"offset=442.55MHz"
KB6TDJ,-120.434082,34.953129,"Santa",KB6TDJ,communications_transponder,,http://www.poi-factory.com/node/2227,,,,Paula,107.2,NFM,Public,AMATEUR,,,"offset=445.2MHz"
AA6GZ,-120.431549,35.899872,"Parkfield",AA6GZ,communications_transponder,,http://www.poi-factory.com/node/2227,,,,443.7,141.3,NFM,Public,AMATEUR,,,"offset=+"
KF6HPV,-120.399742,38.036781,"Columbia",KF6HPV,communications_transponder,,http://www.poi-factory.com/node/2227,,,,440.85,146.2,NFM,Public,AMATEUR,,,"offset=+"
N6EUO,-120.399742,38.036781,"Columbia",N6EUO,communications_transponder,,http://www.poi-factory.com/node/2227,,,,440.975,103.5,NFM,Public,AMATEUR,,,"offset=+"
KG6TN,-120.381203,37.983791,"So",KG6TN,communications_transponder,,http://www.poi-factory.com/node/2227,,,,San,136.5,NFM,Public,AMATEUR,,,"offset=none"
N6OA,-120.359207,36.13887,"Coalinga",N6OA,communications_transponder,,http://www.poi-factory.com/node/2227,,,,441.9,100,NFM,Public,AMATEUR,,,"offset=+"
K6JSI,-120.359207,36.13887,"Coalinga",K6JSI,communications_transponder,,http://www.poi-factory.com/node/2227,,,,443.1,123,NFM,Public,AMATEUR,,,"offset=+"
KB7MWF,-120.30488,47.41416,"Wenatchee",KB7MWF,communications_transponder,,http://www.poi-factory.com/node/2227,,,,443.65,,NFM,Public,AMATEUR,,,"offset=+"
KE6KUA,-120.23156,38.039688,"Twain",KE6KUA,communications_transponder,,http://www.poi-factory.com/node/2227,,,,Harte,114.8,NFM,Public,AMATEUR,,,"offset=440.55MHz"
W6SAR,-120.185577,39.326752,"Truckee",W6SAR,communications_transponder,,http://www.poi-factory.com/node/2227,,,,440.7,131.8,NFM,Public,AMATEUR,,,"offset=+"
N7VXB,-120.139206,39.172329,"Tahoe",N7VXB,communications_transponder,,http://www.poi-factory.com/node/2227,,,,City,107.2,NFM,Public,AMATEUR,,,"offset=441.175MHz"
WA6FJS,-120.139206,39.172329,"Tahoe",WA6FJS,communications_transponder,,http://www.poi-factory.com/node/2227,,,,City,131.8,NFM,Public,AMATEUR,,,"offset=442.95MHz"
K6DNA,-120.135712,34.595959,"So",K6DNA,communications_transponder,,http://www.poi-factory.com/node/2227,,,,San,141.3,NFM,Public,AMATEUR,,,"offset=none"
N6MVT,-120.011566,38.85638,"Meyers",N6MVT,communications_transponder,,http://www.poi-factory.com/node/2227,,,,442.075,127.3,NFM,Public,AMATEUR,,,"offset=+"
WA6EWV,-119.982277,38.933472,"So",WA6EWV,communications_transponder,,http://www.poi-factory.com/node/2227,,,,Lake,,NFM,Public,AMATEUR,,,"offset=none"
W6SUV,-119.982277,38.933472,"So",W6SUV,communications_transponder,,http://www.poi-factory.com/node/2227,,,,Lake,88.5,NFM,Public,AMATEUR,,,"offset=none"
K6SIX,-119.965569,37.485088,"Mariposa",K6SIX,communications_transponder,,http://www.poi-factory.com/node/2227,,,,441.35,107.2,NFM,Public,AMATEUR,,,"offset=+"
KF6CLR,-119.965569,37.485088,"Mariposa",KF6CLR,communications_transponder,,http://www.poi-factory.com/node/2227,,,,441.425,74.4,NFM,Public,AMATEUR,,,"offset=+"
K6IXA,-119.965569,37.485088,"Mariposa",K6IXA,communications_transponder,,http://www.poi-factory.com/node/2227,,,,443.075,107.2,NFM,Public,AMATEUR,,,"offset=+"
W6BXN,-119.965569,37.485088,"Mariposa",W6BXN,communications_transponder,,http://www.poi-factory.com/node/2227,,,,444.7,107.2,NFM,Public,AMATEUR,,,"offset=+"
W6EMS,-119.77253,36.747749,"Fresno",W6EMS,communications_transponder,,http://www.poi-factory.com/node/2227,,,,440.675,110.9,NFM,Public,AMATEUR,,,"offset=+"
N6LYE,-119.77253,36.747749,"Fresno",N6LYE,communications_transponder,,http://www.poi-factory.com/node/2227,,,,441.8,141.3,NFM,Public,AMATEUR,,,"offset=+"
KM6OR,-119.77253,36.747749,"Fresno",KM6OR,communications_transponder,,http://www.poi-factory.com/node/2227,,,,442.2,141.3,NFM,Public,AMATEUR,,,"offset=+"
WB6TIA,-119.77253,36.747749,"Fresno",WB6TIA,communications_transponder,,http://www.poi-factory.com/node/2227,,,,442.35,71.9,NFM,Public,AMATEUR,,,"offset=+"
N6PNZ,-119.77253,36.747749,"Fresno",N6PNZ,communications_transponder,,http://www.poi-factory.com/node/2227,,,,443.125,,NFM,Public,AMATEUR,,,"offset=+"
K6OGX,-119.77253,36.747749,"Fresno",K6OGX,communications_transponder,,http://www.poi-factory.com/node/2227,,,,443.25,107.2,NFM,Public,AMATEUR,,,"offset=+"
KE6SHK,-119.77253,36.747749,"Fresno",KE6SHK,communications_transponder,,http://www.poi-factory.com/node/2227,,,,443.65,141.3,NFM,Public,AMATEUR,,,"offset=+"
N6LDG,-119.77253,36.747749,"Fresno",N6LDG,communications_transponder,,http://www.poi-factory.com/node/2227,,,,443.875,107.2,NFM,Public,AMATEUR,,,"offset=+"
W6TO,-119.77253,36.747749,"Fresno",W6TO,communications_transponder,,http://www.poi-factory.com/node/2227,,,,444.2,141.3,NFM,Public,AMATEUR,,,"offset=+"
KE6VFU,-119.77253,36.747749,"Fresno",KE6VFU,communications_transponder,,http://www.poi-factory.com/node/2227,,,,444.25,141.3,NFM,Public,AMATEUR,,,"offset=+"
KG6IBA,-119.77253,36.747749,"Fresno",KG6IBA,communications_transponder,,http://www.poi-factory.com/node/2227,,,,444.275,141.3,NFM,Public,AMATEUR,,,"offset=+"
W6BJ,-119.77253,36.747749,"Fresno",W6BJ,communications_transponder,,http://www.poi-factory.com/node/2227,,,,444.975,136.5,NFM,Public,AMATEUR,,,"offset=+"
WR6JPL,-119.764999,37.2197,"Cerro",WR6JPL,communications_transponder,,http://www.poi-factory.com/node/2227,,,,Negro,103.5,NFM,Public,AMATEUR,,,"offset=445.2MHz"
KC6TKA,-119.764999,37.2197,"Cyn",KC6TKA,communications_transponder,,http://www.poi-factory.com/node/2227,,,,Country,107.2,NFM,Public,AMATEUR,,,"offset=445.9MHz"
WD6MM,-119.764999,37.2197,"Disneyland",WD6MM,communications_transponder,,http://www.poi-factory.com/node/2227,,,,445.6,103.5,NFM,Public,AMATEUR,,,"offset=-"
WB6SIQ,-119.764999,37.2197,"Hauser",WB6SIQ,communications_transponder,,http://www.poi-factory.com/node/2227,,,,Peak,100,NFM,Public,AMATEUR,,,"offset=446.4MHz"
W7RF,-119.764999,37.2197,"Hollywood",W7RF,communications_transponder,,http://www.poi-factory.com/node/2227,,,,Hls,146.2,NFM,Public,AMATEUR,,,"offset=445.66MHz"
WA6FZH,-119.764999,37.2197,"Johnstone",WA6FZH,communications_transponder,,http://www.poi-factory.com/node/2227,,,,Peak,103.5,NFM,Public,AMATEUR,,,"offset=446.4MHz"
K6KBF,-119.764999,37.2197,"Knotts",K6KBF,communications_transponder,,http://www.poi-factory.com/node/2227,,,,Berry,85.4,NFM,Public,AMATEUR,,,"offset=none"
KD6AFA,-119.764999,37.2197,"Mt",KD6AFA,communications_transponder,,http://www.poi-factory.com/node/2227,,,,Lukens,186.2,NFM,Public,AMATEUR,,,"offset=445.92MHz"
KO6TD,-119.764999,37.2197,"Mt",KO6TD,communications_transponder,,http://www.poi-factory.com/node/2227,,,,Lukens,88.5,NFM,Public,AMATEUR,,,"offset=449.2MHz"
N6JLY,-119.764999,37.2197,"Mt",N6JLY,communications_transponder,,http://www.poi-factory.com/node/2227,,,,Thom,136.5,NFM,Public,AMATEUR,,,"offset=445.68MHz"
WB5EKU,-119.764999,37.2197,"Oat",WB5EKU,communications_transponder,,http://www.poi-factory.com/node/2227,,,,Mtn,67,NFM,Public,AMATEUR,,,"offset=447.2MHz"
W6TRW,-119.764999,37.2197,"Palos",W6TRW,communications_transponder,,http://www.poi-factory.com/node/2227,,,,Verdes,100,NFM,Public,AMATEUR,,,"offset=447MHz"
WB9RNW,-119.764999,37.2197,"San",WB9RNW,communications_transponder,,http://www.poi-factory.com/node/2227,,,,Fernando,131.8,NFM,Public,AMATEUR,,,"offset=none"
WB6DAO,-119.764999,37.2197,"San",WB6DAO,communications_transponder,,http://www.poi-factory.com/node/2227,,,,Gabriel,107.2,NFM,Public,AMATEUR,,,"offset=none"
WA6TWF,-119.764999,37.2197,"Santiago",WA6TWF,communications_transponder,,http://www.poi-factory.com/node/2227,,,,Peak,,NFM,Public,AMATEUR,,,"offset=446.34MHz"
WA6TWF,-119.764999,37.2197,"Santiago",WA6TWF,communications_transponder,,http://www.poi-factory.com/node/2227,,,,Peak,,NFM,Public,AMATEUR,,,"offset=446.36MHz"
W1NMZ,-119.764999,37.2197,"Silverado",W1NMZ,communications_transponder,,http://www.poi-factory.com/node/2227,,,,Canyon,127.3,NFM,Public,AMATEUR,,,"offset=447.32MHz"
WR6AZN,-119.764999,37.2197,"Table",WR6AZN,communications_transponder,,http://www.poi-factory.com/node/2227,,,,Mtn,94.8,NFM,Public,AMATEUR,,,"offset=447.2MHz"
W6GNS,-119.764999,37.2197,"Whittier",W6GNS,communications_transponder,,http://www.poi-factory.com/node/2227,,,,Hills,100,NFM,Public,AMATEUR,,,"offset=445.56MHz"
KE6JZ,-119.703423,36.825317,"Clovis",KE6JZ,communications_transponder,,http://www.poi-factory.com/node/2227,,,,443.8,114.8,NFM,Public,AMATEUR,,,"offset=+"
N6VYT,-119.703423,36.825317,"Clovis",N6VYT,communications_transponder,,http://www.poi-factory.com/node/2227,,,,444.725,141.3,NFM,Public,AMATEUR,,,"offset=+"
KG6MXZ,-119.701172,37.261402,"Coarsegold",KG6MXZ,communications_transponder,,http://www.poi-factory.com/node/2227,,,,444.375,123,NFM,Public,AMATEUR,,,"offset=+"
K6TZ,-119.696747,34.419769,"Santa",K6TZ,communications_transponder,,http://www.poi-factory.com/node/2227,,,,Barbara,131.8,NFM,Public,AMATEUR,,,"offset=446.4MHz"
N6NMC,-119.696747,34.419769,"Santa",N6NMC,communications_transponder,,http://www.poi-factory.com/node/2227,,,,Clarita,67,NFM,Public,AMATEUR,,,"offset=448.34MHz"
W6WGZ,-119.648582,37.32774,"Oakhurst",W6WGZ,communications_transponder,,http://www.poi-factory.com/node/2227,,,,441.175,146.2,NFM,Public,AMATEUR,,,"offset=+"
WB6NIL,-119.648582,37.32774,"Oakhurst",WB6NIL,communications_transponder,,http://www.poi-factory.com/node/2227,,,,444.05,,NFM,Public,AMATEUR,,,"offset=+"
KA6Q,-119.644188,36.326839,"Hanford",KA6Q,communications_transponder,,http://www.poi-factory.com/node/2227,,,,441.675,100,NFM,Public,AMATEUR,,,"offset=+"
W7TT,-119.5558,47.269,"Beezly",W7TT,communications_transponder,,http://www.poi-factory.com/node/2227,,,,Hill,,NFM,Public,AMATEUR,,,"offset=443.9MHz"
W7DTS,-119.5558,47.269,"Beezly",W7DTS,communications_transponder,,http://www.poi-factory.com/node/2227,,,,Hill,100,NFM,Public,AMATEUR,,,"offset=444.9MHz"
N6SGW,-119.385979,36.543991,"Dinuba",N6SGW,communications_transponder,,http://www.poi-factory.com/node/2227,,,,444.825,141.3,NFM,Public,AMATEUR,,,"offset=+"
KE6JZ,-119.31691,37.104057,"Shaver",KE6JZ,communications_transponder,,http://www.poi-factory.com/node/2227,,,,Lake,110.9,NFM,Public,AMATEUR,,,"offset=441.475MHz"
WA7EAQ,-119.316,46.2333,"Badger",WA7EAQ,communications_transponder,,http://www.poi-factory.com/node/2227,,,,Mtn,,NFM,Public,AMATEUR,,,"offset=444.5MHz"
KB6LJQ,-119.292969,34.278259,"Ventura",KB6LJQ,communications_transponder,,http://www.poi-factory.com/node/2227,,,,445.6,114.8,NFM,Public,AMATEUR,,,"offset=-"
WD6EBY,-119.292969,34.278259,"Ventura",WD6EBY,communications_transponder,,http://www.poi-factory.com/node/2227,,,,447,141.3,NFM,Public,AMATEUR,,,"offset=-"
N6BYH,-119.291313,36.329941,"Visalia",N6BYH,communications_transponder,,http://www.poi-factory.com/node/2227,,,,440.45,141.3,NFM,Public,AMATEUR,,,"offset=+"
W6ARE,-119.291313,36.329941,"Visalia",W6ARE,communications_transponder,,http://www.poi-factory.com/node/2227,,,,441.975,82.5,NFM,Public,AMATEUR,,,"offset=+"
WA6BLB,-119.291313,36.329941,"Visalia",WA6BLB,communications_transponder,,http://www.poi-factory.com/node/2227,,,,443.025,,NFM,Public,AMATEUR,,,"offset=+"
WA6MSN,-119.291313,36.329941,"Visalia",WA6MSN,communications_transponder,,http://www.poi-factory.com/node/2227,,,,444.45,127.3,NFM,Public,AMATEUR,,,"offset=+"
KK6AC,-119.018738,35.371681,"Bakersfield",KK6AC,communications_transponder,,http://www.poi-factory.com/node/2227,,,,443,141.3,NFM,Public,AMATEUR,,,"offset=+"
W6LIE,-119.018738,35.371681,"Bakersfield",W6LIE,communications_transponder,,http://www.poi-factory.com/node/2227,,,,443.9,100,NFM,Public,AMATEUR,,,"offset=+"
KG6QZB,-119.016411,36.06525,"Porterville",KG6QZB,communications_transponder,,http://www.poi-factory.com/node/2227,,,,440.25,186.2,NFM,Public,AMATEUR,,,"offset=+"
KR6DK,-119.016411,36.06525,"Porterville",KR6DK,communications_transponder,,http://www.poi-factory.com/node/2227,,,,441.525,67,NFM,Public,AMATEUR,,,"offset=+"
AC6KT,-119.016411,36.06525,"Porterville",AC6KT,communications_transponder,,http://www.poi-factory.com/node/2227,,,,442.275,100,NFM,Public,AMATEUR,,,"offset=+"
W4EG,-118.910049,34.183929,"Newbury",W4EG,communications_transponder,,http://www.poi-factory.com/node/2227,,,,Park,123,NFM,Public,AMATEUR,,,"offset=445.9MHz"
N6KYD,-118.780121,34.269669,"Simi",N6KYD,communications_transponder,,http://www.poi-factory.com/node/2227,,,,Valley,141.3,NFM,Public,AMATEUR,,,"offset=445.58MHz"
N6KYD,-118.780121,34.269669,"Simi",N6KYD,communications_transponder,,http://www.poi-factory.com/node/2227,,,,Valley,141.3,NFM,Public,AMATEUR,,,"offset=445.58MHz"
KC6TAC,-118.780121,34.269669,"Simi",KC6TAC,communications_transponder,,http://www.poi-factory.com/node/2227,,,,Valley,136.5,NFM,Public,AMATEUR,,,"offset=447.56MHz"
N6NMC,-118.542107,34.391331,"Santa",N6NMC,communications_transponder,,http://www.poi-factory.com/node/2227,,,,Clarita,67,NFM,Public,AMATEUR,,,"offset=448.34MHz"
KA6NFP,-118.531113,34.384838,"Newcastle",KA6NFP,communications_transponder,,http://www.poi-factory.com/node/2227,,,,442.575,162.2,NFM,Public,AMATEUR,,,"offset=+"
KD6LVW,-118.525787,34.047352,"Pacific",KD6LVW,communications_transponder,,http://www.poi-factory.com/node/2227,,,,Palisades,123,NFM,Public,AMATEUR,,,"offset=445.52MHz"
W6SLZ,-118.447166,35.132591,"Tehachapi",W6SLZ,communications_transponder,,http://www.poi-factory.com/node/2227,,,,440.625,88.5,NFM,Public,AMATEUR,,,"offset=+"
KC6HUR,-118.446617,34.30637,"Sylmar",KC6HUR,communications_transponder,,http://www.poi-factory.com/node/2227,,,,440.2,110.9,NFM,Public,AMATEUR,,,"offset="
N7DWC,-118.423172,45.812939,"Weston",N7DWC,communications_transponder,,http://www.poi-factory.com/node/2227,,,,444.65,,NFM,Public,AMATEUR,,,"offset=+"
K6KCP,-118.41597,33.919018,"El",K6KCP,communications_transponder,,http://www.poi-factory.com/node/2227,,,,Dorado,179.9,NFM,Public,AMATEUR,,,"offset=none"
W6HA,-118.41597,33.919018,"El",W6HA,communications_transponder,,http://www.poi-factory.com/node/2227,,,,Segundo,127.3,NFM,Public,AMATEUR,,,"offset=445.62MHz"
WA6QAG,-118.39662,34.00378,"W",WA6QAG,communications_transponder,,http://www.poi-factory.com/node/2227,,,,Los,103.5,NFM,Public,AMATEUR,,,"offset=none"
W6TRW,-118.387627,33.849758,"Redondo",W6TRW,communications_transponder,,http://www.poi-factory.com/node/2227,,,,Beach,100,NFM,Public,AMATEUR,,,"offset=447MHz"
WD8CIK,-118.325195,34.098011,"Hollywood",WD8CIK,communications_transponder,,http://www.poi-factory.com/node/2227,,,,446.56,127.3,NFM,Public,AMATEUR,,,"offset=-"
N6EW,-118.243469,34.05217,"Los",N6EW,communications_transponder,,http://www.poi-factory.com/node/2227,,,,Angeles,,NFM,Public,AMATEUR,,,"offset=445.32MHz"
N6EX,-118.243469,34.05217,"Los",N6EX,communications_transponder,,http://www.poi-factory.com/node/2227,,,,Angeles,,NFM,Public,AMATEUR,,,"offset=445.5MHz"
WB5EKU,-118.243469,34.05217,"Los",WB5EKU,communications_transponder,,http://www.poi-factory.com/node/2227,,,,Angeles,67,NFM,Public,AMATEUR,,,"offset=447.2MHz"
N6JVH,-118.243469,34.05217,"Los",N6JVH,communications_transponder,,http://www.poi-factory.com/node/2227,,,,Angeles,100,NFM,Public,AMATEUR,,,"offset=447.24MHz"
WA6QAG,-118.243469,34.05217,"Los",WA6QAG,communications_transponder,,http://www.poi-factory.com/node/2227,,,,Angeles,103.5,NFM,Public,AMATEUR,,,"offset=447.32MHz"
KE6PCV,-118.243469,34.05217,"Los",KE6PCV,communications_transponder,,http://www.poi-factory.com/node/2227,,,,Angeles,100,NFM,Public,AMATEUR,,,"offset=447.72MHz"
KE6PCV,-118.243469,34.05217,"Los",KE6PCV,communications_transponder,,http://www.poi-factory.com/node/2227,,,,Angeles,100,NFM,Public,AMATEUR,,,"offset=447.72MHz"
W6TOI,-118.129501,34.191151,"Altadena",W6TOI,communications_transponder,,http://www.poi-factory.com/node/2227,,,,445.64,156.7,NFM,Public,AMATEUR,,,"offset=-"
W6TOI,-118.129501,34.191151,"Altadena",W6TOI,communications_transponder,,http://www.poi-factory.com/node/2227,,,,445.64,156.7,NFM,Public,AMATEUR,,,"offset=-"
KJ6W,-118.115829,34.579468,"Palmdale",KJ6W,communications_transponder,,http://www.poi-factory.com/node/2227,,,,445.6,100,NFM,Public,AMATEUR,,,"offset=-"
KA6GXY,-118.115128,33.88068,"Bellflower",KA6GXY,communications_transponder,,http://www.poi-factory.com/node/2227,,,,448.34,151.4,NFM,Public,AMATEUR,,,"offset=-"
KA6GXY,-118.115128,33.88068,"Bellflower",KA6GXY,communications_transponder,,http://www.poi-factory.com/node/2227,,,,448.34,151.4,NFM,Public,AMATEUR,,,"offset=-"
